Project ID,Project Name,Project Start Date,Project Completion Date,Building ID,Number,Street,Borough,Postcode,BBL,BIN,Community Board,Council District,Census Tract,NTA - Neighborhood Tabulation Area,Latitude,Longitude,Latitude (Internal),Longitude (Internal),Building Completion Date,Reporting Construction Type,Extended Affordability Only,Prevailing Wage Status,Extremely Low Income Units,Very Low Income Units,Low Income Units,Moderate Income Units,Middle Income Units,Other Income Units,Studio Units,1-BR Units,2-BR Units,3-BR Units,4-BR Units,5-BR Units,6-BR+ Units,Unknown-BR Units,Counted Rental Units,Counted Homeownership Units,All Counted Units,Total Units,CompletionYear
75180,BRG LAMONT HDFC.HPO.FY25,6/30/2025,6/30/2025,671869.0,91-31,LAMONT AVENUE,Queens,11373.0,4015680040.0,4039232.0,QN-04,25.0,467.0,QN0401,40.744069,-73.874149,40.7443,-73.874289,2025-06-30,Preservation,Yes,Non Prevailing Wage,1.0,34.0,44.0,3.0,,1.0,18.0,51.0,14.0,,,,,,83.0,,83.0,83,2025.0
76578,PUEBLO NUEVO.HUDMF.FY25,6/30/2025,6/30/2025,805337.0,210,STANTON STREET,Manhattan,10002.0,1003450048.0,1004151.0,MN-03,2.0,2201.0,MN0302,40.719598,-73.982363,40.720103,-73.982175,2025-06-30,Preservation,Yes,Non Prevailing Wage,139.0,19.0,12.0,1.0,,1.0,,78.0,72.0,22.0,,,,,172.0,,172.0,172,2025.0
73316,GRAND & ROGERS CLUSTER (INCREASE).MPLP.FY25,6/27/2025,6/27/2025,56818.0,1171,CLAY AVENUE,Bronx,10456.0,2024300043.0,2002159.0,BX-04,16.0,17701.0,BX0401,40.831669,-73.911023,40.831828,-73.911268,2025-06-27,Preservation,No,Non Prevailing Wage,,,,12.0,,,,,6.0,6.0,,,,,12.0,,12.0,12,2025.0
73316,GRAND & ROGERS CLUSTER (INCREASE).MPLP.FY25,6/27/2025,6/27/2025,56824.0,1183,CLAY AVENUE,Bronx,10456.0,2024300037.0,2002156.0,BX-04,16.0,17701.0,BX0401,40.831927,-73.910881,40.83216,-73.91108,2025-06-27,Preservation,No,Non Prevailing Wage,,,,12.0,,,,,6.0,6.0,,,,,12.0,,12.0,12,2025.0
73316,GRAND & ROGERS CLUSTER (INCREASE).MPLP.FY25,6/27/2025,6/27/2025,56832.0,1202,CLAY AVENUE,Bronx,10456.0,2024260059.0,2002082.0,BX-04,16.0,17701.0,BX0401,40.832377,-73.91061,40.832055,-73.910502,2025-06-27,Preservation,No,Non Prevailing Wage,,3.0,8.0,,,,,,11.0,,,,,,11.0,,11.0,11,2025.0
73316,GRAND & ROGERS CLUSTER (INCREASE).MPLP.FY25,6/27/2025,6/27/2025,81951.0,384,GRAND CONCOURSE,Bronx,10451.0,2023410055.0,2001008.0,BX-01,8.0,51.0,BX0101,40.816058,-73.928392,40.816165,-73.927969,2025-06-27,Preservation,No,Non Prevailing Wage,,7.0,19.0,,,,7.0,13.0,6.0,,,,,,26.0,,26.0,26,2025.0
73316,GRAND & ROGERS CLUSTER (INCREASE).MPLP.FY25,6/27/2025,6/27/2025,97336.0,1129,MORRIS AVENUE,Bronx,10456.0,2024490023.0,2002575.0,BX-04,16.0,18101.0,BX0401,40.83134,-73.915244,40.83145,-73.915522,2025-06-27,Preservation,No,Non Prevailing Wage,,2.0,3.0,,,,,,4.0,1.0,,,,,5.0,,5.0,5,2025.0
73316,GRAND & ROGERS CLUSTER (INCREASE).MPLP.FY25,6/27/2025,6/27/2025,107220.0,1038,ROGERS PLACE,Bronx,10459.0,2027000009.0,2005392.0,BX-02,17.0,131.0,BX0202,40.824464,-73.897761,40.82454,-73.897486,2025-06-27,Preservation,No,Non Prevailing Wage,,4.0,16.0,,,1.0,5.0,7.0,9.0,,,,,,21.0,,21.0,21,2025.0
76058,OCEAN PARK.YR15.FY25,5/6/2025,5/6/2025,631575.0,125,BEACH 17 STREET,Queens,11691.0,4156380001.0,4436178.0,QN-14,31.0,101004.0,QN1401,40.594254,-73.75121,40.594168,-73.752273,2025-05-06,Preservation,Yes,Non Prevailing Wage,,,300.0,,,1.0,,150.0,126.0,25.0,,,,,301.0,,301.0,301,2025.0
76058,OCEAN PARK.YR15.FY25,5/6/2025,5/6/2025,811186.0,120,BEACH 19 STREET,Queens,11691.0,4156380001.0,4436179.0,QN-14,31.0,101004.0,QN1401,40.593572,-73.753179,40.594168,-73.752273,2025-05-06,Preservation,Yes,Non Prevailing Wage,,,300.0,,,1.0,,150.0,126.0,25.0,,,,,301.0,,301.0,301,2025.0
75517,3044 ALBANY CRESCENT 1.HPO.FY25,4/10/2025,4/10/2025,44824.0,3044,ALBANY CRESCENT,Bronx,10463.0,2032660090.0,2016127.0,BX-08,14.0,277.0,BX0801,40.877233,-73.90365,40.877527,-73.90349,2025-04-10,Preservation,Yes,Non Prevailing Wage,1.0,8.0,25.0,2.0,,,,6.0,20.0,10.0,,,,,36.0,,36.0,36,2025.0
75994,UNION STREET HOUSES.HUDMF.FY25,4/8/2025,4/8/2025,383410.0,1678,UNION STREET,Brooklyn,11213.0,3014020021.0,3037761.0,BK-09,35.0,35102.0,BK0901,40.667904,-73.932841,40.667696,-73.932916,2025-04-08,Preservation,Yes,Non Prevailing Wage,14.0,4.0,,,2.0,,,8.0,6.0,6.0,,,,,20.0,,20.0,20,2025.0
75994,UNION STREET HOUSES.HUDMF.FY25,4/8/2025,4/8/2025,383415.0,1690,UNION STREET,Brooklyn,11213.0,3014020024.0,3037762.0,BK-09,35.0,35102.0,BK0901,40.667885,-73.93248,40.667682,-73.932614,2025-04-08,Preservation,Yes,Non Prevailing Wage,24.0,4.0,1.0,,1.0,1.0,,19.0,12.0,,,,,,31.0,,31.0,31,2025.0
75994,UNION STREET HOUSES.HUDMF.FY25,4/8/2025,4/8/2025,383419.0,1703,UNION STREET,Brooklyn,11213.0,3013960074.0,3037568.0,BK-09,35.0,35102.0,BK0901,40.667946,-73.933255,40.668141,-73.933323,2025-04-08,Preservation,Yes,Non Prevailing Wage,15.0,3.0,2.0,,,,,4.0,9.0,7.0,,,,,20.0,,20.0,20,2025.0
75994,UNION STREET HOUSES.HUDMF.FY25,4/8/2025,4/8/2025,383423.0,1715,UNION STREET,Brooklyn,11213.0,3013960070.0,3037567.0,BK-09,35.0,35102.0,BK0901,40.667924,-73.93288,40.668124,-73.933028,2025-04-08,Preservation,Yes,Non Prevailing Wage,16.0,4.0,,,,,,4.0,9.0,7.0,,,,,20.0,,20.0,20,2025.0
75994,UNION STREET HOUSES.HUDMF.FY25,4/8/2025,4/8/2025,383424.0,1719,UNION STREET,Brooklyn,11213.0,3013960068.0,3037566.0,BK-09,35.0,35102.0,BK0901,40.667918,-73.932754,40.668105,-73.93279,2025-04-08,Preservation,Yes,Non Prevailing Wage,8.0,3.0,,1.0,,,1.0,4.0,3.0,4.0,,,,,12.0,,12.0,12,2025.0
75994,UNION STREET HOUSES.HUDMF.FY25,4/8/2025,4/8/2025,383443.0,1751,UNION STREET,Brooklyn,11213.0,3013960047.0,3037557.0,BK-09,35.0,35102.0,BK0901,40.667863,-73.931756,40.668068,-73.931665,2025-04-08,Preservation,Yes,Non Prevailing Wage,14.0,2.0,,,,,,1.0,11.0,4.0,,,,,16.0,,16.0,16,2025.0
76728,131 CONCORD STREET APARTMENTS,3/12/2025,3/12/2025,1011483.0,131,CONCORD STREET,Brooklyn,11201.0,3001070048.0,3000000.0,BK-02,33.0,13.0,BK0202,40.697663,-73.986191,40.697929,-73.986231,2025-03-12,New Construction,No,Non Prevailing Wage,,,,,22.0,,4.0,7.0,11.0,,,,,,22.0,,22.0,73,2025.0
75047,3569 DEKALB CLUSTER. HPO.FY25,3/6/2025,3/6/2025,61064.0,3569,DEKALB AVENUE,Bronx,10467.0,2033290040.0,2017838.0,BX-07,11.0,43101.0,BX0703,40.884184,-73.878979,40.884319,-73.879192,2025-03-06,Preservation,Yes,Non Prevailing Wage,1.0,9.0,38.0,5.0,,1.0,2.0,32.0,19.0,1.0,,,,,54.0,,54.0,54,2025.0
76737,2112 AVE P APARTMENTS,3/3/2025,5/14/2025,1010158.0,2112,AVENUE P,Brooklyn,11229.0,3067840005.0,3182580.0,BK-15,48.0,550.0,BK1502,40.611012,-73.952343,40.610833,-73.952123,2025-05-14,New Construction,No,Non Prevailing Wage,,,,,15.0,,,1.0,14.0,,,,,,15.0,,15.0,47,2025.0
75527,219 SACKMAN STREET.YR15.FY25,2/28/2025,2/28/2025,366041.0,219,SACKMAN STREET,Brooklyn,11212.0,3036940009.0,3083613.0,BK-16,37.0,908.0,BK1602,40.672617,-73.905636,40.672584,-73.905352,2025-02-28,Preservation,Yes,Non Prevailing Wage,1.0,26.0,10.0,,,1.0,4.0,4.0,23.0,7.0,,,,,38.0,,38.0,38,2025.0
75499,142 WEST 139TH ST.HPO.FY25,2/19/2025,2/19/2025,41291.0,142,WEST 139 STREET,Manhattan,10030.0,1020070059.0,1060050.0,MN-10,9.0,230.0,MN1002,40.817591,-73.941248,40.817407,-73.941393,2025-02-19,Preservation,Yes,Non Prevailing Wage,,1.0,11.0,8.0,,,,20.0,,,,,,,20.0,,20.0,20,2025.0
76740,31-33 LINCOLD RD. APARTMENTS,2/18/2025,2/18/2025,971695.0,33,LINCOLN ROAD,Brooklyn,11225.0,3050240074.0,3426435.0,BK-09,40.0,327.0,BK0902,40.660784,-73.961484,40.6611,-73.961855,2025-02-18,New Construction,No,Non Prevailing Wage,,,,,27.0,,6.0,6.0,15.0,,,,,,27.0,,27.0,90,2025.0
76752,806 EAST 170TH STREET APARTMENTS,1/30/2025,6/9/2025,1016054.0,806,EAST 170 STREET,Bronx,10459.0,2029630018.0,2000000.0,BX-03,17.0,153.0,BX0303,40.833152,-73.895471,40.832885,-73.895681,2025-06-09,New Construction,No,Non Prevailing Wage,,,,,100.0,,18.0,7.0,75.0,,,,,,100.0,,100.0,100,2025.0
76755,25-51 38TH ST APARTMENTS,1/30/2025,1/30/2025,1000028.0,25-51,38 STREET,Queens,11103.0,4006540014.0,4607559.0,QN-01,22.0,143.0,QN0104,40.767784,-73.912924,40.766922,-73.913311,2025-01-30,New Construction,No,Non Prevailing Wage,,,,,7.0,,,5.0,2.0,,,,,,7.0,,7.0,21,2025.0
76757,237 MCGUINNESS BLVD APARTMENTS,1/28/2025,6/11/2025,1008308.0,237,MCGUINNESS BOULEVARD,Brooklyn,11222.0,3025760007.0,3000000.0,BK-01,33.0,575.0,BK0101,40.730107,-73.951295,40.730171,-73.951745,2025-06-11,New Construction,No,Non Prevailing Wage,,,,,21.0,,5.0,5.0,11.0,,,,,,21.0,,21.0,70,2025.0
76760,THE DIME,1/28/2025,1/28/2025,1012104.0,277,SOUTH 5 STREET,Brooklyn,11211.0,3024477501.0,3323539.0,BK-01,34.0,525.0,BK0102,40.70922,-73.957871,40.709598,-73.957925,2025-01-28,New Construction,No,Non Prevailing Wage,,,,,54.0,,19.0,24.0,6.0,5.0,,,,,54.0,,54.0,177,2025.0
76736,36-20 STEINWAY STREET APARTMENTS,1/7/2025,1/7/2025,999816.0,36-20,STEINWAY STREET,Queens,11101.0,4006657501.0,4619734.0,QN-01,26.0,157.0,QN0104,40.753253,-73.923688,40.75291,-73.924399,2025-01-07,New Construction,No,Non Prevailing Wage,,,,,43.0,,13.0,21.0,9.0,,,,,,43.0,,43.0,143,2025.0
76434,463 WEST 125TH STREET APARTMENTS,12/26/2024,5/28/2025,1015652.0,463,WEST 125 STREET,Manhattan,10027.0,1019660040.0,1000000.0,MN-09,7.0,20901.0,MN0901,40.812869,-73.955807,40.813159,-73.955659,2025-05-28,New Construction,No,Non Prevailing Wage,,,,,5.0,,2.0,3.0,,,,,,,5.0,,5.0,14,2025.0
74425,CROTONA VII.HUDMF.FY25,12/20/2024,12/20/2024,85555.0,1660,HOE AVENUE,Bronx,10460.0,2029900001.0,2010670.0,BX-03,17.0,161.0,BX0303,40.835496,-73.887745,40.835526,-73.887427,2024-12-20,Preservation,Yes,Non Prevailing Wage,42.0,8.0,4.0,,,1.0,5.0,27.0,17.0,5.0,1.0,,,,55.0,,55.0,55,2024.0
75549,MORNINGSIDE I.HUDMF.FY25,12/19/2024,12/19/2024,25538.0,20,MORNINGSIDE AVENUE,Manhattan,10026.0,1019430001.0,1081519.0,MN-10,9.0,20102.0,MN1001,40.805708,-73.95811,40.805656,-73.957568,2024-12-19,Preservation,Yes,Non Prevailing Wage,39.0,5.0,2.0,,6.0,1.0,2.0,28.0,15.0,7.0,1.0,,,,53.0,,53.0,53,2024.0
75549,MORNINGSIDE I.HUDMF.FY25,12/19/2024,12/19/2024,805872.0,369,WEST 116 STREET,Manhattan,10026.0,1019430001.0,1081516.0,MN-10,9.0,20102.0,MN1001,40.805277,-73.95738,40.805656,-73.957568,2024-12-19,Preservation,Yes,Non Prevailing Wage,39.0,11.0,4.0,,2.0,,,15.0,41.0,,,,,,56.0,,56.0,56,2024.0
75051,CATHEDRAL PARKWAY & MID-HARLEM.YR15.FY25,12/18/2024,12/18/2024,3494.0,2246,ADAM C POWELL BOULEVARD,Manhattan,10027.0,1019380030.0,1058779.0,MN-10,9.0,226.0,MN1002,40.813547,-73.944998,40.813709,-73.945374,2024-12-18,Preservation,Yes,Non Prevailing Wage,3.0,3.0,1.0,1.0,,,,4.0,4.0,,,,,,8.0,,8.0,8,2024.0
75051,CATHEDRAL PARKWAY & MID-HARLEM.YR15.FY25,12/18/2024,12/18/2024,3594.0,2423,ADAM C POWELL BOULEVARD,Manhattan,10030.0,1020100064.0,1060100.0,MN-10,9.0,230.0,MN1002,40.819375,-73.940716,40.81924,-73.940318,2024-12-18,Preservation,Yes,Non Prevailing Wage,2.0,7.0,2.0,,,,1.0,,5.0,5.0,,,,,11.0,,11.0,11,2024.0
75051,CATHEDRAL PARKWAY & MID-HARLEM.YR15.FY25,12/18/2024,12/18/2024,3917.0,2084,FREDERICK DOUGLASS BOULEVARD,Manhattan,10026.0,1018280061.0,1055127.0,MN-10,9.0,216.0,MN1001,40.802299,-73.956902,40.802258,-73.956537,2024-12-18,Preservation,Yes,Non Prevailing Wage,1.0,2.0,3.0,3.0,,,,,1.0,8.0,,,,,9.0,,9.0,9,2024.0
75051,CATHEDRAL PARKWAY & MID-HARLEM.YR15.FY25,12/18/2024,12/18/2024,37867.0,212,WEST 111 STREET,Manhattan,10026.0,1018260044.0,1055070.0,MN-10,9.0,216.0,MN1001,40.800333,-73.955588,40.800301,-73.956105,2024-12-18,Preservation,Yes,Non Prevailing Wage,1.0,9.0,2.0,8.0,1.0,,2.0,13.0,3.0,3.0,,,,,21.0,,21.0,21,2024.0
75051,CATHEDRAL PARKWAY & MID-HARLEM.YR15.FY25,12/18/2024,12/18/2024,37869.0,216,WEST 111 STREET,Manhattan,10026.0,1018260046.0,1055071.0,MN-10,9.0,216.0,MN1001,40.800366,-73.955668,40.800367,-73.95626,2024-12-18,Preservation,Yes,Non Prevailing Wage,2.0,8.0,3.0,7.0,,1.0,1.0,14.0,3.0,3.0,,,,,21.0,,21.0,21,2024.0
75051,CATHEDRAL PARKWAY & MID-HARLEM.YR15.FY25,12/18/2024,12/18/2024,38041.0,267,WEST 113 STREET,Manhattan,10026.0,1018290009.0,1055141.0,MN-10,9.0,216.0,MN1001,40.802087,-73.955811,40.802334,-73.955836,2024-12-18,Preservation,Yes,Non Prevailing Wage,,4.0,1.0,7.0,,,,5.0,3.0,4.0,,,,,12.0,,12.0,12,2024.0
75051,CATHEDRAL PARKWAY & MID-HARLEM.YR15.FY25,12/18/2024,12/18/2024,38050.0,280,WEST 113 STREET,Manhattan,10026.0,1018280060.0,1055126.0,MN-10,9.0,216.0,MN1001,40.802216,-73.956161,40.802082,-73.956407,2024-12-18,Preservation,Yes,Non Prevailing Wage,1.0,4.0,3.0,6.0,,1.0,,10.0,4.0,1.0,,,,,15.0,,15.0,15,2024.0
75051,CATHEDRAL PARKWAY & MID-HARLEM.YR15.FY25,12/18/2024,12/18/2024,38234.0,225,WEST 115 STREET,Manhattan,10026.0,1018310116.0,1055251.0,MN-10,9.0,218.0,MN1001,40.803067,-73.954257,40.803322,-73.9543,2024-12-18,Preservation,Yes,Non Prevailing Wage,,2.0,1.0,2.0,,,,,5.0,,,,,,5.0,,5.0,5,2024.0
75051,CATHEDRAL PARKWAY & MID-HARLEM.YR15.FY25,12/18/2024,12/18/2024,38238.0,235,WEST 115 STREET,Manhattan,10026.0,1018310012.0,1055227.0,MN-10,9.0,218.0,MN1001,40.803284,-73.954759,40.803484,-73.954661,2024-12-18,Preservation,Yes,Non Prevailing Wage,2.0,1.0,3.0,4.0,,,,5.0,5.0,,,,,,10.0,,10.0,10,2024.0
75051,CATHEDRAL PARKWAY & MID-HARLEM.YR15.FY25,12/18/2024,12/18/2024,40656.0,231,WEST 134 STREET,Manhattan,10030.0,1019400019.0,1058832.0,MN-10,9.0,228.0,MN1002,40.815098,-73.945271,40.815332,-73.945275,2024-12-18,Preservation,Yes,Non Prevailing Wage,,1.0,1.0,2.0,1.0,,,2.0,3.0,,,,,,5.0,,5.0,5,2024.0
75051,CATHEDRAL PARKWAY & MID-HARLEM.YR15.FY25,12/18/2024,12/18/2024,40745.0,241,WEST 135 STREET,Manhattan,10030.0,1019410008.0,1058875.0,MN-10,9.0,228.0,MN1002,40.816194,-73.945787,40.816427,-73.945621,2024-12-18,Preservation,Yes,Non Prevailing Wage,,4.0,3.0,2.0,1.0,,1.0,5.0,4.0,,,,,,10.0,,10.0,10,2024.0
75051,CATHEDRAL PARKWAY & MID-HARLEM.YR15.FY25,12/18/2024,12/18/2024,41097.0,67,WEST 137 STREET,Manhattan,10037.0,1017350006.0,1053902.0,MN-10,9.0,212.0,MN1002,40.814878,-73.938639,40.815326,-73.93914,2024-12-18,Preservation,Yes,Non Prevailing Wage,3.0,6.0,2.0,1.0,1.0,1.0,1.0,5.0,,8.0,,,,,14.0,,14.0,14,2024.0
75374,UPACA / 1900 LEXINGTON.YR15.FY25,12/11/2024,12/11/2024,24078.0,1900,LEXINGTON AVENUE,Manhattan,10035.0,1017670016.0,1054347.0,MN-11,9.0,182.0,MN1102,40.800055,-73.940585,40.800349,-73.940733,2024-12-11,Preservation,Yes,Non Prevailing Wage,86.0,20.0,12.0,14.0,1.0,1.0,1.0,4.0,97.0,32.0,,,,,134.0,,134.0,134,2024.0
74485,RACHEL BRIDGE HDFC.HPO.FY25,11/27/2024,11/27/2024,27974.0,1360,ST NICHOLAS AVENUE,Manhattan,10033.0,1021530001.0,1079909.0,MN-12,10.0,261.0,MN1201,40.847503,-73.935052,40.84739,-73.93421,2024-11-27,Preservation,Yes,Non Prevailing Wage,,22.0,158.0,59.0,1.0,,60.0,60.0,,120.0,,,,,240.0,,240.0,240,2024.0
74485,RACHEL BRIDGE HDFC.HPO.FY25,11/27/2024,11/27/2024,28980.0,101,WADSWORTH AVENUE,Manhattan,10033.0,1021620001.0,1079921.0,MN-12,10.0,263.0,MN1201,40.848099,-73.936215,40.84795,-73.935561,2024-11-27,Preservation,Yes,Non Prevailing Wage,,17.0,167.0,54.0,2.0,,,60.0,180.0,,,,,,240.0,,240.0,240,2024.0
74485,RACHEL BRIDGE HDFC.HPO.FY25,11/27/2024,11/27/2024,804020.0,258,AUDUBON AVENUE,Manhattan,10033.0,1021530001.0,1079908.0,MN-12,10.0,261.0,MN1201,40.847043,-73.933585,40.84739,-73.93421,2024-11-27,Preservation,Yes,Non Prevailing Wage,,7.0,187.0,44.0,1.0,1.0,,60.0,180.0,,,,,,240.0,,240.0,240,2024.0
74485,RACHEL BRIDGE HDFC.HPO.FY25,11/27/2024,11/27/2024,805325.0,1361,ST NICHOLAS AVENUE,Manhattan,10033.0,1021620001.0,1079920.0,MN-12,10.0,263.0,MN1201,40.847511,-73.93507,40.84795,-73.935561,2024-11-27,Preservation,Yes,Non Prevailing Wage,,27.0,158.0,54.0,,1.0,60.0,60.0,,120.0,,,,,240.0,,240.0,240,2024.0
76400,232 EAST 35 STREET,10/29/2024,5/2/2025,1014287.0,232,EAST 35 STREET,Brooklyn,11203.0,3048880031.0,3423163.0,BK-17,40.0,856.0,BK1701,40.649757,-73.944647,40.649592,-73.944903,2025-05-02,New Construction,No,Non Prevailing Wage,,,,,2.0,,,,1.0,1.0,,,,,2.0,,2.0,6,2025.0
76401,236 EAST 35 STREET,10/29/2024,5/2/2025,1014232.0,236,EAST 35 STREET,Brooklyn,11203.0,,,BK-17,40.0,856.0,BK1701,40.649683,-73.944639,,,2025-05-02,New Construction,No,Non Prevailing Wage,,,,,2.0,,,,1.0,1.0,,,,,2.0,,2.0,6,2025.0
76416,2301 BEAUMONT AVENUE,10/29/2024,6/16/2025,1014454.0,2301,BEAUMONT AVENUE,Bronx,10458.0,2030890065.0,2000000.0,BX-06,15.0,391.0,BX0603,40.852105,-73.885501,40.852223,-73.88562,2025-06-16,New Construction,No,Non Prevailing Wage,,,,,19.0,,9.0,6.0,4.0,,,,,,19.0,,19.0,20,2025.0
76402,3421 SNYDER AVENUE,10/28/2024,5/2/2025,1014203.0,3421,SNYDER AVENUE,Brooklyn,11203.0,3048880033.0,3109443.0,BK-17,40.0,856.0,BK1701,40.649186,-73.945238,40.649378,-73.944896,2025-05-02,New Construction,No,Non Prevailing Wage,,,,,3.0,,,,3.0,,,,,,3.0,,3.0,10,2025.0
76404,1700 JEROME AVENUE,10/15/2024,6/25/2025,369117.0,1621,SHEEPSHEAD BAY ROAD,Brooklyn,11235.0,3074620067.0,3205005.0,BK-15,48.0,600.0,BK1503,40.586866,-73.952609,40.587151,-73.951946,2025-06-25,New Construction,No,Non Prevailing Wage,,,,,11.0,,1.0,7.0,3.0,,,,,,11.0,,11.0,36,2025.0
76411,2011 VYSE AVENUE,10/8/2024,2/28/2025,1014211.0,2011,VYSE AVENUE,Bronx,10460.0,2031270025.0,2000000.0,BX-06,15.0,363.0,BX0601,40.842322,-73.8819,40.842646,-73.882033,2025-02-28,New Construction,No,Non Prevailing Wage,,,,,16.0,,10.0,6.0,,,,,,,16.0,,16.0,17,2025.0
76269,3165 VILLA AVE _ HPS,9/30/2024,12/20/2024,1012085.0,3165,VILLA AVENUE,Bronx,10468.0,2033220044.0,2000000.0,BX-07,11.0,411.0,BX0702,40.876414,-73.88696,40.876206,-73.88734,2024-12-20,New Construction,No,Non Prevailing Wage,,,,,56.0,,13.0,22.0,21.0,,,,,,56.0,,56.0,57,2024.0
76277,1848 GUERLAIN STREET,9/25/2024,6/27/2025,1013695.0,1848,GUERLAIN STREET,Bronx,10460.0,2039220004.0,2000000.0,BX-09,18.0,21601.0,BX0901,40.839612,-73.865374,40.839384,-73.865338,2025-06-27,New Construction,No,Non Prevailing Wage,,,,,9.0,,2.0,2.0,5.0,,,,,,9.0,,9.0,9,2025.0
76276,1846 GUERLAIN STREET,9/24/2024,6/16/2025,1014051.0,1846,GUERLAIN STREET,Bronx,10460.0,2039220003.0,2000000.0,BX-09,18.0,21601.0,BX0901,40.83959,-73.865443,40.839365,-73.865425,2025-06-16,New Construction,No,Non Prevailing Wage,,,,,7.0,,,7.0,,,,,,,7.0,,7.0,8,2025.0
76279,257 DRIGGS AVENUE,9/24/2024,5/30/2025,234532.0,257,DRIGGS AVENUE,Brooklyn,11222.0,3026990009.0,3067546.0,BK-01,33.0,499.0,BK0101,40.722662,-73.948013,40.72236,-73.947927,2025-05-30,New Construction,No,Non Prevailing Wage,,,,,6.0,,1.0,1.0,4.0,,,,,,6.0,,6.0,18,2025.0
76281,368 EAST 194TH STREET APARTMENTS,9/23/2024,3/20/2025,976784.0,368,EAST 194 STREET,Bronx,10458.0,2032760030.0,2016340.0,BX-07,15.0,39901.0,BX0701,40.863654,-73.890495,40.863473,-73.890626,2025-03-20,New Construction,No,Non Prevailing Wage,,,,,12.0,,1.0,,,11.0,,,,,12.0,,12.0,12,2025.0
76282,767 EAST 232ND STREET,9/23/2024,6/27/2025,1015664.0,767,EAST 232 STREET,Bronx,10466.0,,,BX-12,11.0,422.0,BX1203,40.892078,-73.855585,,,2025-06-27,New Construction,No,Non Prevailing Wage,,,,,9.0,,6.0,3.0,,,,,,,9.0,,9.0,10,2025.0
76283,831 FOREST AVENUE,9/23/2024,3/12/2025,1014054.0,831,FOREST AVENUE,Bronx,10456.0,2026470018.0,2000000.0,BX-01,17.0,77.0,BX0102,40.820252,-73.905369,40.820485,-73.905517,2025-03-12,New Construction,No,Non Prevailing Wage,,,,,12.0,,,7.0,5.0,,,,,,12.0,,12.0,15,2025.0
74737,WEST FARMS.HUDMF.FY25,9/19/2024,9/19/2024,79328.0,1011,FREEMAN STREET,Bronx,10459.0,2030060067.0,2010904.0,BX-03,17.0,123.0,BX0303,40.829029,-73.887148,40.829273,-73.887,2024-09-19,Preservation,Yes,Non Prevailing Wage,131.0,25.0,6.0,7.0,,,2.0,67.0,95.0,5.0,,,,,169.0,,169.0,169,2024.0
74737,WEST FARMS.HUDMF.FY25,9/19/2024,9/19/2024,79331.0,1029,FREEMAN STREET,Bronx,10459.0,2030060053.0,2010903.0,BX-03,17.0,123.0,BX0303,40.828774,-73.886773,40.828935,-73.886527,2024-09-19,Preservation,Yes,Non Prevailing Wage,44.0,7.0,1.0,1.0,,1.0,,18.0,35.0,1.0,,,,,54.0,,54.0,54,2024.0
74737,WEST FARMS.HUDMF.FY25,9/19/2024,9/19/2024,122054.0,1314,WEST FARMS ROAD,Bronx,10459.0,2030060084.0,2010905.0,BX-03,17.0,123.0,BX0303,40.829567,-73.887213,40.829517,-73.886638,2024-09-19,Preservation,Yes,Non Prevailing Wage,73.0,21.0,7.0,6.0,,,6.0,31.0,69.0,1.0,,,,,107.0,,107.0,107,2024.0
76290,135 MARCY PLACE,9/17/2024,2/5/2025,94273.0,135,MARCY PLACE,Bronx,10452.0,2028410082.0,2008070.0,BX-04,16.0,22102.0,BX0403,40.837966,-73.915929,40.838095,-73.915654,2025-02-05,New Construction,No,Non Prevailing Wage,,,,,8.0,,8.0,,,,,,,,8.0,,8.0,26,2025.0
76299,177-44 129 AVENUE,9/6/2024,4/16/2025,1013923.0,177-44,129 AVENUE,Queens,11434.0,4125380130.0,4000000.0,QN-12,27.0,33401.0,QN1204,40.680537,-73.764812,40.680522,-73.763785,2025-04-16,New Construction,No,Non Prevailing Wage,,,,,16.0,,1.0,6.0,9.0,,,,,,16.0,,16.0,16,2025.0
76302,633 EAST 230 STREET,9/5/2024,4/17/2025,1013796.0,633,EAST 230 STREET,Bronx,10466.0,2048330041.0,2129682.0,BX-12,11.0,420.0,BX1203,40.892055,-73.860743,40.892293,-73.860757,2025-04-17,New Construction,No,Non Prevailing Wage,,,,,14.0,,1.0,,13.0,,,,,,14.0,,14.0,25,2025.0
75450,METROCOURT.HUDMF.FY25,8/29/2024,8/29/2024,1122.0,1952,2 AVENUE,Manhattan,10029.0,1016720001.0,1052651.0,MN-11,8.0,164.0,MN1101,40.787105,-73.945002,40.786995,-73.94467,2024-08-29,Preservation,Yes,Non Prevailing Wage,66.0,14.0,7.0,,3.0,1.0,,16.0,63.0,12.0,,,,,91.0,,91.0,91,2024.0
76305,2026 HONEYWELL AVE APARTMENTS,8/29/2024,4/9/2025,1013950.0,2026,HONEYWELL AVENUE,Bronx,10460.0,2031220010.0,2000000.0,BX-06,15.0,363.0,BX0601,40.843496,-73.883683,40.843575,-73.883253,2025-04-09,New Construction,No,Non Prevailing Wage,,,,,59.0,,,,59.0,,,,,,59.0,,59.0,59,2025.0
76309,1845 PITKINS AVE APARTMENTS,8/27/2024,12/19/2024,1013970.0,1845,PITKIN AVENUE,Brooklyn,11212.0,3037090135.0,3000000.0,BK-16,37.0,908.0,BK1602,40.670588,-73.904745,40.670816,-73.904817,2024-12-19,New Construction,No,Non Prevailing Wage,,,,,8.0,,1.0,,7.0,,,,,,8.0,,8.0,8,2024.0
77185,THE TRIO APARTMENTS,8/27/2024,8/27/2024,1006161.0,27-19,THOMSON AVENUE,Queens,11101.0,4000817502.0,4000694.0,QN-02,26.0,1901.0,QN0201,40.746303,-73.942452,40.746454,-73.942231,2024-08-27,New Construction,No,Non Prevailing Wage,,,,,11.0,,1.0,7.0,3.0,,,,,,11.0,,11.0,34,2024.0
76229,34-31 9TH STREET,8/16/2024,4/16/2025,400528.0,34-29,9 STREET,Queens,11106.0,4003240013.0,4003849.0,QN-01,22.0,39.0,QN0105,40.764359,-73.939941,40.764205,-73.939758,2025-04-16,New Construction,No,Non Prevailing Wage,,,,,2.0,,,,2.0,,,,,,2.0,,2.0,6,2025.0
76342,2423 BARKER AVENUE APARTMENTS,8/16/2024,5/23/2025,47147.0,2423,BARKER AVENUE,Bronx,10467.0,2044240048.0,2000000.0,BX-11,15.0,33202.0,BX1104,40.861955,-73.869429,40.862151,-73.869699,2025-05-23,New Construction,No,Non Prevailing Wage,,,,,12.0,,1.0,8.0,2.0,1.0,,,,,12.0,,12.0,38,2025.0
76242,931 NEW YORK AVENUE,8/14/2024,5/28/2025,344068.0,931,NEW YORK AVENUE,Brooklyn,11203.0,3048870063.0,3109420.0,BK-17,40.0,856.0,BK1701,40.650427,-73.946607,40.650592,-73.946314,2025-05-28,New Construction,No,Non Prevailing Wage,,,,,4.0,,1.0,1.0,2.0,,,,,,4.0,,4.0,12,2025.0
76258,372 EAST 194TH STREET APARTMENTS,8/9/2024,4/23/2025,976785.0,372,EAST 194 STREET,Bronx,10458.0,2032760031.0,2016341.0,BX-07,15.0,39901.0,BX0701,40.86361,-73.890419,40.863432,-73.890554,2025-04-23,New Construction,No,Non Prevailing Wage,,,,,7.0,,,6.0,1.0,,,,,,7.0,,7.0,8,2025.0
76262,258 ROCKAWAY AVENUE APARTMENTS,7/31/2024,2/12/2025,1014482.0,258,ROCKAWAY AVENUE,Brooklyn,11233.0,3014480037.0,3000000.0,BK-16,41.0,36501.0,BK1601,40.67437,-73.911124,40.674401,-73.91142,2025-02-12,New Construction,No,Non Prevailing Wage,,,,,7.0,,,7.0,,,,,,,7.0,,7.0,8,2025.0
76263,260 ROCKAWAY AVENUE APARTMENTS,7/31/2024,2/12/2025,1014516.0,260,ROCKAWAY AVENUE,Brooklyn,11233.0,3014480037.0,3000000.0,BK-16,41.0,36501.0,BK1601,40.674301,-73.911132,40.674401,-73.91142,2025-02-12,New Construction,No,Non Prevailing Wage,,,,,7.0,,,7.0,,,,,,,7.0,,7.0,8,2025.0
76264,262 ROCKAWAY AVENUE APARTMENTS,7/31/2024,2/12/2025,1014484.0,262,ROCKAWAY AVENUE,Brooklyn,11233.0,3014480039.0,3000000.0,BK-16,41.0,36501.0,BK1601,40.674233,-73.911139,40.674263,-73.911434,2025-02-12,New Construction,No,Non Prevailing Wage,,,,,7.0,,,7.0,,,,,,,7.0,,7.0,8,2025.0
76307,1907 HARRISON AVENUE,7/18/2024,2/20/2025,1013510.0,1907,HARRISON AVENUE,Bronx,10453.0,2028680161.0,2008565.0,BX-05,14.0,243.0,BX0501,40.85305,-73.911019,40.853157,-73.911243,2025-02-20,New Construction,No,Non Prevailing Wage,,,,,14.0,,4.0,5.0,5.0,,,,,,14.0,,14.0,15,2025.0
76313,364 EAST 194TH STREET APARTMENTS,7/17/2024,4/23/2025,976783.0,364,EAST 194 STREET,Bronx,10458.0,2032760028.0,2016339.0,BX-07,15.0,39901.0,BX0701,40.863698,-73.890571,40.863523,-73.890709,2025-04-23,New Construction,No,Non Prevailing Wage,,,,,12.0,,1.0,2.0,,9.0,,,,,12.0,,12.0,12,2025.0
76266,344 LORIMER STREET,7/16/2024,2/7/2025,1014111.0,344,LORIMER STREET,Brooklyn,11206.0,3030500004.0,3071063.0,BK-01,34.0,511.0,BK0104,40.707201,-73.948235,40.707223,-73.948004,2025-02-07,New Construction,No,Non Prevailing Wage,,,,,3.0,,,,3.0,,,,,,3.0,,3.0,8,2025.0
76316,1847 PITKINS AVE APARTMENTS,7/15/2024,3/5/2025,1013551.0,1847,PITKIN AVENUE,Brooklyn,11212.0,3037090134.0,3000000.0,BK-16,37.0,908.0,BK1602,40.670596,-73.904687,40.670827,-73.904752,2025-03-05,New Construction,No,Non Prevailing Wage,,,,,8.0,,1.0,,7.0,,,,,,8.0,,8.0,8,2025.0
76317,2525 GRAND AVENUE,7/15/2024,2/5/2025,1013351.0,2525,GRAND AVENUE,Bronx,10468.0,2032140051.0,2000000.0,BX-07,14.0,265.0,BX0701,40.865168,-73.901491,40.865366,-73.90165,2025-02-05,New Construction,No,Non Prevailing Wage,,,,,8.0,,8.0,,,,,,,,8.0,,8.0,24,2025.0
76329,2783 WEBB AVE APARTMENTS,7/4/2024,5/14/2025,120399.0,2783,WEBB AVENUE,Bronx,10468.0,2032490221.0,2015388.0,BX-08,14.0,26702.0,BX0801,40.871453,-73.901214,40.871396,-73.901558,2025-05-14,New Construction,No,Non Prevailing Wage,,,,,18.0,,11.0,6.0,,1.0,,,,,18.0,,18.0,19,2025.0
76330,2958 MARION AVE APARTMENTS,7/3/2024,6/24/2025,1013073.0,2958,MARION AVENUE,Bronx,10458.0,2032850007.0,2000000.0,BX-07,11.0,415.0,BX0702,40.868981,-73.884246,40.868838,-73.884011,2025-06-24,New Construction,No,Non Prevailing Wage,,,,,3.0,,,2.0,1.0,,,,,,3.0,,3.0,10,2025.0
76332,2960 MARION AVE APARTMENTS,7/3/2024,6/24/2025,1013074.0,2960,MARION AVENUE,Bronx,10458.0,2032850009.0,2000000.0,BX-07,11.0,415.0,BX0702,40.869014,-73.884188,40.868879,-73.883946,2025-06-24,New Construction,No,Non Prevailing Wage,,,,,3.0,,,2.0,1.0,,,,,,3.0,,3.0,10,2025.0
76335,65 STANHOPE,7/3/2024,6/16/2025,375679.0,65,STANHOPE STREET,Brooklyn,11221.0,3032540066.0,3000000.0,BK-04,34.0,421.0,BK0401,40.696217,-73.924849,40.696324,-73.92508,2025-06-16,New Construction,No,Non Prevailing Wage,,,,,3.0,,,3.0,,,,,,,3.0,,3.0,7,2025.0
76336,63 STANHOPE STREET,7/3/2024,6/16/2025,1017218.0,63,STANHOPE STREET,Brooklyn,11221.0,,,BK-04,34.0,421.0,BK0401,40.696179,-73.924889,,,2025-06-16,New Construction,No,Non Prevailing Wage,,,,,3.0,,,3.0,,,,,,,3.0,,3.0,7,2025.0
74330,FAC 341 10TH STREET HDFC.HPO.FY24,6/28/2024,6/28/2024,135263.0,341,10 STREET,Brooklyn,11215.0,3010100026.0,3022261.0,BK-06,38.0,139.0,BK0602,40.669057,-73.987762,40.66934,-73.987686,2024-06-28,Preservation,Yes,Non Prevailing Wage,2.0,3.0,98.0,9.0,41.0,1.0,5.0,36.0,76.0,37.0,,,,,154.0,,154.0,154,2024.0
74482,ANDERSON AVENUE HDFC.HPO.FY24,6/28/2024,6/28/2024,45412.0,1038,ANDERSON AVENUE,Bronx,10452.0,2025040094.0,2003052.0,BX-04,16.0,193.0,BX0402,40.833167,-73.926487,40.833238,-73.925916,2024-06-28,Preservation,Yes,Non Prevailing Wage,1.0,51.0,34.0,,,,,65.0,20.0,1.0,,,,,86.0,,86.0,86,2024.0
74482,ANDERSON AVENUE HDFC.HPO.FY24,6/28/2024,6/28/2024,45414.0,1060,ANDERSON AVENUE,Bronx,10452.0,2025050001.0,2003055.0,BX-04,16.0,193.0,BX0402,40.83373,-73.926053,40.833595,-73.925717,2024-06-28,Preservation,Yes,Non Prevailing Wage,,24.0,11.0,,,,,27.0,8.0,,,,,,35.0,,35.0,35,2024.0
74482,ANDERSON AVENUE HDFC.HPO.FY24,6/28/2024,6/28/2024,45417.0,1080,ANDERSON AVENUE,Bronx,10452.0,2025050006.0,2003056.0,BX-04,16.0,193.0,BX0402,40.834171,-73.925716,40.834053,-73.925431,2024-06-28,Preservation,Yes,Non Prevailing Wage,3.0,44.0,42.0,1.0,,1.0,19.0,60.0,11.0,1.0,,,,,91.0,,91.0,91,2024.0
74482,ANDERSON AVENUE HDFC.HPO.FY24,6/28/2024,6/28/2024,806241.0,1050,ANDERSON AVENUE,Bronx,10452.0,2025040094.0,2098174.0,BX-04,16.0,193.0,BX0402,40.833387,-73.926317,40.833238,-73.925916,2024-06-28,Preservation,Yes,Non Prevailing Wage,,60.0,25.0,,,1.0,1.0,70.0,14.0,1.0,,,,,86.0,,86.0,86,2024.0
74483,CROTONA PARK WEST HDFC.HPO.FY24,6/28/2024,6/28/2024,60076.0,1451,CROTONA PLACE,Bronx,10456.0,2029270031.0,2009638.0,BX-03,16.0,169.0,BX0302,40.836267,-73.901563,40.835965,-73.901993,2024-06-28,Preservation,Yes,Non Prevailing Wage,,15.0,6.0,,,,,,20.0,1.0,,,,,21.0,,21.0,21,2024.0
74483,CROTONA PARK WEST HDFC.HPO.FY24,6/28/2024,6/28/2024,79777.0,1409,FULTON AVENUE,Bronx,10456.0,2029260027.0,2009629.0,BX-03,16.0,14702.0,BX0302,40.834845,-73.901731,40.8349,-73.902092,2024-06-28,Preservation,Yes,Non Prevailing Wage,,36.0,14.0,,,,,27.0,23.0,,,,,,50.0,,50.0,50,2024.0
74483,CROTONA PARK WEST HDFC.HPO.FY24,6/28/2024,6/28/2024,79778.0,1413,FULTON AVENUE,Bronx,10456.0,2029260023.0,2009628.0,BX-03,16.0,14702.0,BX0302,40.834941,-73.901669,40.835136,-73.901937,2024-06-28,Preservation,Yes,Non Prevailing Wage,,20.0,11.0,,,1.0,,15.0,17.0,,,,,,32.0,,32.0,32,2024.0
74483,CROTONA PARK WEST HDFC.HPO.FY24,6/28/2024,6/28/2024,79780.0,1465,FULTON AVENUE,Bronx,10456.0,2029270059.0,2009643.0,BX-03,16.0,169.0,BX0302,40.836049,-73.900905,40.835989,-73.901245,2024-06-28,Preservation,Yes,Non Prevailing Wage,,12.0,7.0,,,,,13.0,5.0,1.0,,,,,19.0,,19.0,19,2024.0
74483,CROTONA PARK WEST HDFC.HPO.FY24,6/28/2024,6/28/2024,79781.0,1469,FULTON AVENUE,Bronx,10456.0,2029270057.0,2009642.0,BX-03,16.0,169.0,BX0302,40.836096,-73.900876,40.836113,-73.901165,2024-06-28,Preservation,Yes,Non Prevailing Wage,,16.0,4.0,,,,,15.0,5.0,,,,,,20.0,,20.0,20,2024.0
74483,CROTONA PARK WEST HDFC.HPO.FY24,6/28/2024,6/28/2024,79783.0,1485,FULTON AVENUE,Bronx,10456.0,2029270050.0,2009641.0,BX-03,16.0,169.0,BX0302,40.836274,-73.900768,40.836483,-73.900923,2024-06-28,Preservation,Yes,Non Prevailing Wage,1.0,30.0,13.0,,,,,13.0,30.0,1.0,,,,,44.0,,44.0,44,2024.0
74483,CROTONA PARK WEST HDFC.HPO.FY24,6/28/2024,6/28/2024,79791.0,1573,FULTON AVENUE,Bronx,10457.0,2029290035.0,2009653.0,BX-03,15.0,167.0,BX0302,40.838277,-73.89963,40.838606,-73.899868,2024-06-28,Preservation,Yes,Non Prevailing Wage,1.0,16.0,3.0,,,,,,7.0,13.0,,,,,20.0,,20.0,20,2024.0
74483,CROTONA PARK WEST HDFC.HPO.FY24,6/28/2024,6/28/2024,79792.0,1581,FULTON AVENUE,Bronx,10457.0,2029290031.0,2009652.0,BX-03,15.0,167.0,BX0302,40.838411,-73.899557,40.838777,-73.899759,2024-06-28,Preservation,Yes,Non Prevailing Wage,,35.0,11.0,,,,,5.0,36.0,5.0,,,,,46.0,,46.0,46,2024.0
74483,CROTONA PARK WEST HDFC.HPO.FY24,6/28/2024,6/28/2024,79793.0,1591,FULTON AVENUE,Bronx,10457.0,2029290028.0,2009651.0,BX-03,15.0,167.0,BX0302,40.838579,-73.899463,40.838996,-73.899618,2024-06-28,Preservation,Yes,Non Prevailing Wage,,28.0,17.0,,,1.0,,12.0,29.0,5.0,,,,,46.0,,46.0,46,2024.0
74483,CROTONA PARK WEST HDFC.HPO.FY24,6/28/2024,6/28/2024,79794.0,1605,FULTON AVENUE,Bronx,10457.0,2029290024.0,2009650.0,BX-03,15.0,167.0,BX0302,40.838815,-73.899333,40.839207,-73.899408,2024-06-28,Preservation,Yes,Non Prevailing Wage,,34.0,14.0,,,,,2.0,46.0,,,,,,48.0,,48.0,48,2024.0
74483,CROTONA PARK WEST HDFC.HPO.FY24,6/28/2024,6/28/2024,79799.0,1727,FULTON AVENUE,Bronx,10457.0,2029300074.0,2009669.0,BX-03,15.0,165.0,BX0302,40.842318,-73.897361,40.842277,-73.89765,2024-06-28,Preservation,Yes,Non Prevailing Wage,,15.0,7.0,,,,,4.0,18.0,,,,,,22.0,,22.0,22,2024.0
74483,CROTONA PARK WEST HDFC.HPO.FY24,6/28/2024,6/28/2024,79800.0,1729,FULTON AVENUE,Bronx,10457.0,2029300072.0,2009668.0,BX-03,15.0,165.0,BX0302,40.842345,-73.897347,40.8424,-73.897585,2024-06-28,Preservation,Yes,Non Prevailing Wage,,7.0,8.0,,,,2.0,8.0,5.0,,,,,,15.0,,15.0,15,2024.0
74483,CROTONA PARK WEST HDFC.HPO.FY24,6/28/2024,6/28/2024,79801.0,1735,FULTON AVENUE,Bronx,10457.0,2029300070.0,2009667.0,BX-03,15.0,165.0,BX0302,40.842428,-73.8973,40.842573,-73.897495,2024-06-28,Preservation,Yes,Non Prevailing Wage,,30.0,11.0,,,,,25.0,15.0,1.0,,,,,41.0,,41.0,41,2024.0
74483,CROTONA PARK WEST HDFC.HPO.FY24,6/28/2024,6/28/2024,79802.0,1743,FULTON AVENUE,Bronx,10457.0,2029300066.0,2009666.0,BX-03,15.0,165.0,BX0302,40.842537,-73.897234,40.842823,-73.89736,2024-06-28,Preservation,Yes,Non Prevailing Wage,,31.0,13.0,,,1.0,,28.0,16.0,1.0,,,,,45.0,,45.0,45,2024.0
74483,CROTONA PARK WEST HDFC.HPO.FY24,6/28/2024,6/28/2024,79803.0,1763,FULTON AVENUE,Bronx,10457.0,2029300065.0,2009665.0,BX-03,15.0,165.0,BX0302,40.842814,-73.897079,40.843001,-73.897266,2024-06-28,Preservation,Yes,Non Prevailing Wage,,10.0,5.0,,,,1.0,5.0,5.0,4.0,,,,,15.0,,15.0,15,2024.0
74483,CROTONA PARK WEST HDFC.HPO.FY24,6/28/2024,6/28/2024,79804.0,1767,FULTON AVENUE,Bronx,10457.0,2029300063.0,2009664.0,BX-03,15.0,165.0,BX0302,40.842869,-73.897046,40.843105,-73.897212,2024-06-28,Preservation,Yes,Non Prevailing Wage,,8.0,7.0,,,,1.0,5.0,5.0,4.0,,,,,15.0,,15.0,15,2024.0
74483,CROTONA PARK WEST HDFC.HPO.FY24,6/28/2024,6/28/2024,79805.0,1771,FULTON AVENUE,Bronx,10457.0,2029300062.0,2009663.0,BX-03,15.0,165.0,BX0302,40.842924,-73.897017,40.843207,-73.897157,2024-06-28,Preservation,Yes,Non Prevailing Wage,,9.0,6.0,,,,1.0,5.0,5.0,4.0,,,,,15.0,,15.0,15,2024.0
74483,CROTONA PARK WEST HDFC.HPO.FY24,6/28/2024,6/28/2024,79806.0,1775,FULTON AVENUE,Bronx,10457.0,2029300061.0,2009662.0,BX-03,15.0,165.0,BX0302,40.842979,-73.896984,40.843308,-73.897103,2024-06-28,Preservation,Yes,Non Prevailing Wage,,10.0,5.0,,,,1.0,5.0,5.0,4.0,,,,,15.0,,15.0,15,2024.0
74483,CROTONA PARK WEST HDFC.HPO.FY24,6/28/2024,6/28/2024,79807.0,1779,FULTON AVENUE,Bronx,10457.0,2029300060.0,2009661.0,BX-03,15.0,165.0,BX0302,40.843037,-73.896952,40.84341,-73.897049,2024-06-28,Preservation,Yes,Non Prevailing Wage,,10.0,5.0,,,,1.0,5.0,5.0,4.0,,,,,15.0,,15.0,15,2024.0
74483,CROTONA PARK WEST HDFC.HPO.FY24,6/28/2024,6/28/2024,110993.0,547,ST PAULS PLACE,Bronx,10456.0,2029270033.0,2009639.0,BX-03,16.0,169.0,BX0302,40.835743,-73.902149,40.83602,-73.902159,2024-06-28,Preservation,Yes,Non Prevailing Wage,,15.0,3.0,,,,,10.0,8.0,,,,,,18.0,,18.0,18,2024.0
72693,BR AFFORDABLE HDFC.YR15.FY24,6/27/2024,6/17/2025,50351.0,1038,BOSTON ROAD,Bronx,10456.0,2026220040.0,2004403.0,BX-03,17.0,18502.0,BX0301,40.826269,-73.906304,40.826052,-73.906217,2025-06-17,Preservation,No,Non Prevailing Wage,6.0,16.0,2.0,,,,,2.0,22.0,,,,,,24.0,,24.0,24,2025.0
72693,BR AFFORDABLE HDFC.YR15.FY24,6/27/2024,6/17/2025,50356.0,1056,BOSTON ROAD,Bronx,10456.0,2026220048.0,2004404.0,BX-03,17.0,18502.0,BX0301,40.826576,-73.90583,40.826425,-73.905761,2025-06-17,Preservation,No,Non Prevailing Wage,2.0,6.0,1.0,1.0,,,,,10.0,,,,,,10.0,,10.0,10,2025.0
72693,BR AFFORDABLE HDFC.YR15.FY24,6/27/2024,6/17/2025,50357.0,1065,BOSTON ROAD,Bronx,10456.0,2026070072.0,2004188.0,BX-03,17.0,18502.0,BX0301,40.826554,-73.905895,40.82673,-73.906162,2025-06-17,Preservation,No,Non Prevailing Wage,2.0,10.0,3.0,,,1.0,1.0,5.0,10.0,,,,,,16.0,,16.0,16,2025.0
72693,BR AFFORDABLE HDFC.YR15.FY24,6/27/2024,6/17/2025,50359.0,1077,BOSTON ROAD,Bronx,10456.0,2026070068.0,2004187.0,BX-03,17.0,18502.0,BX0301,40.826699,-73.905671,40.827004,-73.905789,2025-06-17,Preservation,No,Non Prevailing Wage,3.0,19.0,8.0,2.0,,,,10.0,12.0,10.0,,,,,32.0,,32.0,32,2025.0
72693,BR AFFORDABLE HDFC.YR15.FY24,6/27/2024,6/17/2025,806298.0,1051,BOSTON ROAD,Bronx,10456.0,2026070072.0,2004191.0,BX-03,17.0,18502.0,BX0301,40.826387,-73.906155,40.82673,-73.906162,2025-06-17,Preservation,No,Non Prevailing Wage,2.0,27.0,6.0,,,,,6.0,28.0,1.0,,,,,35.0,,35.0,35,2025.0
72693,BR AFFORDABLE HDFC.YR15.FY24,6/27/2024,6/17/2025,806299.0,1057,BOSTON ROAD,Bronx,10456.0,2026070072.0,2004190.0,BX-03,17.0,18502.0,BX0301,40.826458,-73.906043,40.82673,-73.906162,2025-06-17,Preservation,No,Non Prevailing Wage,1.0,7.0,4.0,2.0,1.0,1.0,1.0,5.0,10.0,,,,,,16.0,,16.0,16,2025.0
72693,BR AFFORDABLE HDFC.YR15.FY24,6/27/2024,6/17/2025,806300.0,1061,BOSTON ROAD,Bronx,10456.0,2026070072.0,2004189.0,BX-03,17.0,18502.0,BX0301,40.826507,-73.905967,40.82673,-73.906162,2025-06-17,Preservation,No,Non Prevailing Wage,1.0,13.0,1.0,,,,1.0,6.0,8.0,,,,,,15.0,,15.0,15,2025.0
74887,FULTON STREET SOUTH.HUDMF.FY24,6/27/2024,6/27/2024,808353.0,1330,FULTON STREET,Brooklyn,11216.0,3018610020.0,3053758.0,BK-03,36.0,247.0,BK0301,40.680269,-73.94747,40.680025,-73.947246,2024-06-27,Preservation,Yes,Non Prevailing Wage,49.0,8.0,3.0,4.0,,1.0,,28.0,37.0,,,,,,65.0,,65.0,65,2024.0
75189,FLUSHING PRESERVATION HDFC.HPO.FY24,6/25/2024,4/21/2025,433240.0,137-20,45 AVENUE,Queens,11355.0,4051460026.0,4116425.0,QN-07,20.0,845.0,QN0705,40.751157,-73.822506,40.750901,-73.822344,2025-04-21,Preservation,Yes,Non Prevailing Wage,1.0,18.0,54.0,71.0,4.0,1.0,16.0,70.0,50.0,13.0,,,,,149.0,,149.0,149,2025.0
75189,FLUSHING PRESERVATION HDFC.HPO.FY24,6/25/2024,4/21/2025,644826.0,44-15,COLDEN STREET,Queens,11355.0,4051450024.0,4116405.0,QN-07,20.0,845.0,QN0705,40.751557,-73.823995,40.751603,-73.823638,2025-04-21,Preservation,Yes,Non Prevailing Wage,1.0,10.0,50.0,73.0,4.0,,2.0,73.0,43.0,20.0,,,,,138.0,,138.0,138,2025.0
75189,FLUSHING PRESERVATION HDFC.HPO.FY24,6/25/2024,4/21/2025,644828.0,44-35,COLDEN STREET,Queens,11355.0,4051450001.0,4116404.0,QN-07,20.0,845.0,QN0705,40.751398,-73.823844,40.75104,-73.823091,2025-04-21,Preservation,Yes,Non Prevailing Wage,,4.0,23.0,39.0,4.0,1.0,13.0,28.0,23.0,7.0,,,,,71.0,,71.0,71,2025.0
75189,FLUSHING PRESERVATION HDFC.HPO.FY24,6/25/2024,4/21/2025,644829.0,45-15,COLDEN STREET,Queens,11355.0,4051460001.0,4116424.0,QN-07,20.0,845.0,QN0705,40.750512,-73.823013,40.750426,-73.822446,2025-04-21,Preservation,Yes,Non Prevailing Wage,2.0,25.0,48.0,67.0,5.0,1.0,20.0,72.0,37.0,19.0,,,,,148.0,,148.0,148,2025.0
75657,2422 LYVERE ST,6/24/2024,12/5/2024,1013293.0,2422,LYVERE STREET,Bronx,10461.0,2039970017.0,2042235.0,BX-10,18.0,204.0,BX1001,40.841572,-73.852377,40.841541,-73.852063,2024-12-05,New Construction,No,Non Prevailing Wage,,,,,31.0,,3.0,17.0,11.0,,,,,,31.0,,31.0,32,2024.0
75658,218 FRONT STREET APARTMENTS,6/10/2024,5/23/2025,296347.0,218,FRONT STREET,Brooklyn,11201.0,3000550020.0,3000000.0,BK-02,33.0,21.0,BK0202,40.702309,-73.983698,40.701876,-73.983742,2025-05-23,New Construction,No,Non Prevailing Wage,,,,,66.0,,16.0,17.0,33.0,,,,,,66.0,,66.0,218,2025.0
75659,390 EAST MOSHOLU PKWY,6/6/2024,11/6/2024,1013192.0,390,EAST MOSHOLU PARKWAY SOU,Bronx,10458.0,2032810075.0,2000000.0,BX-07,11.0,415.0,BX0702,40.869129,-73.881635,40.869023,-73.881932,2024-11-06,New Construction,No,Non Prevailing Wage,,,,,51.0,,11.0,37.0,3.0,,,,,,51.0,,51.0,52,2024.0
75660,2380 DEAN STREET APARTMENTS,6/6/2024,11/27/2024,1013355.0,2380,DEAN STREET,Brooklyn,11233.0,3014490057.0,3038957.0,BK-16,37.0,36502.0,BK1601,40.674615,-73.908608,40.674396,-73.908925,2024-11-27,New Construction,No,Non Prevailing Wage,,,,,21.0,,,9.0,11.0,1.0,,,,,21.0,,21.0,21,2024.0
75661,2316 GRAND AVE APARTMENTS_HPS,6/5/2024,6/23/2025,81550.0,2316,GRAND AVENUE,Bronx,10468.0,2031980017.0,2014244.0,BX-07,14.0,253.0,BX0701,40.860524,-73.904777,40.86062,-73.904419,2025-06-23,New Construction,No,Non Prevailing Wage,,,,,14.0,,11.0,3.0,,,,,,,14.0,,14.0,15,2025.0
75413,RYANLEACOCK.PPP.FY24,6/4/2024,7/3/2024,695668.0,108-04,SPA PLACE,Queens,11435.0,4119440016.0,4258207.0,QN-12,28.0,198.0,QN1202,40.691559,-73.800329,40.691623,-73.800786,2024-07-03,Preservation,No,Non Prevailing Wage,,,,,,1.0,,,,1.0,,,,,1.0,,1.0,2,2024.0
75665,HILLSIDE HOMES,6/4/2024,3/7/2025,122092.0,215,WEST KINGSBRIDGE ROAD,Bronx,10463.0,2032560043.0,2000000.0,BX-08,14.0,273.0,BX0801,40.871832,-73.904435,40.872051,-73.904095,2025-03-07,New Construction,No,Non Prevailing Wage,,,,,8.0,,1.0,3.0,4.0,,,,,,8.0,,8.0,23,2025.0
74536,ALLEN CATHEDRAL SENIOR RESIDENCES.Y15.FY24,5/30/2024,5/30/2024,822102.0,107-02,MERRICK BOULEVARD,Queens,11433.0,4101700050.0,4529895.0,QN-12,27.0,25402.0,QN1202,40.699926,-73.788619,40.69932,-73.788722,2024-05-30,Preservation,Yes,Non Prevailing Wage,27.0,116.0,71.0,6.0,,1.0,,209.0,12.0,,,,,,221.0,,221.0,221,2024.0
75063,LENOXVILLE.HUDMF.FY24,5/23/2024,5/23/2024,23461.0,20,LENOX AVENUE,Manhattan,10026.0,1015950001.0,1051407.0,MN-10,9.0,186.0,MN1001,40.798962,-73.951905,40.798984,-73.951392,2024-05-23,Preservation,Yes,Non Prevailing Wage,51.0,6.0,4.0,1.0,,1.0,14.0,26.0,16.0,7.0,,,,,63.0,,63.0,63,2024.0
75063,LENOXVILLE.HUDMF.FY24,5/23/2024,5/23/2024,955154.0,30,LENOX AVENUE,Manhattan,10026.0,1015950001.0,1083918.0,MN-10,9.0,186.0,MN1001,40.799163,-73.95175,40.798984,-73.951392,2024-05-23,Preservation,Yes,Non Prevailing Wage,38.0,6.0,10.0,1.0,,,,20.0,21.0,14.0,,,,,55.0,,55.0,55,2024.0
75670,1425 FULTON STREET APARTMENTS,5/22/2024,9/2/2024,1000435.0,1425,FULTON STREET,Brooklyn,11216.0,3018540049.0,3323647.0,BK-03,36.0,269.0,BK0301,40.680122,-73.944434,40.680344,-73.944196,2024-09-02,New Construction,No,Non Prevailing Wage,,,,,8.0,,2.0,2.0,4.0,,,,,,8.0,,8.0,26,2024.0
75672,65 4TH AVE APARTMENTS,5/20/2024,11/27/2024,1013180.0,65,4 AVENUE,Brooklyn,11217.0,3009320007.0,3000000.0,BK-06,39.0,12901.0,BK0602,40.682242,-73.97977,40.68214,-73.979438,2024-11-27,New Construction,No,Non Prevailing Wage,,,,,9.0,,,9.0,,,,,,,9.0,,9.0,9,2024.0
75673,961 WESTCHESTER AVE APARTMENTS,5/16/2024,7/24/2024,1012099.0,961,WESTCHESTER AVENUE,Bronx,10459.0,2027150001.0,2000000.0,BX-02,17.0,12901.0,BX0202,40.822714,-73.895719,40.823051,-73.895653,2024-07-24,New Construction,No,Non Prevailing Wage,,,,,22.0,,1.0,1.0,20.0,,,,,,22.0,,22.0,47,2024.0
75677,2081 ANTHONY AVE APARTMENTS,5/15/2024,8/9/2024,1012447.0,2081,ANTHONY AVENUE,Bronx,10457.0,2031560127.0,2129714.0,BX-05,15.0,23502.0,BX0502,40.853344,-73.901639,40.853375,-73.901899,2024-08-09,New Construction,No,Non Prevailing Wage,,,,,32.0,,,,32.0,,,,,,32.0,,32.0,54,2024.0
75678,83-61 116TH STREET APARTMENTS,5/15/2024,2/26/2025,530523.0,83-61,116 STREET,Queens,11418.0,4033210177.0,4000000.0,QN-09,29.0,134.0,QN0901,40.704642,-73.835877,40.704845,-73.835725,2025-02-26,New Construction,No,Non Prevailing Wage,,,,,9.0,,1.0,4.0,4.0,,,,,,9.0,,9.0,29,2025.0
75679,968 ROGERS PLACE,5/14/2024,2/5/2025,1012907.0,968,ROGERS PLACE,Bronx,10459.0,2026990019.0,2129680.0,BX-02,17.0,12901.0,BX0202,40.822984,-73.897821,40.823089,-73.897582,2025-02-05,New Construction,No,Non Prevailing Wage,,,,,7.0,,,7.0,,,,,,,7.0,,7.0,8,2025.0
75680,408 HAWTHORNE ST,5/14/2024,9/19/2024,1012969.0,408,HAWTHORNE STREET,Brooklyn,11203.0,3048200016.0,3000000.0,BK-09,40.0,810.0,BK0902,40.658072,-73.946712,40.657863,-73.946694,2024-09-19,New Construction,No,Non Prevailing Wage,,,,,3.0,,1.0,2.0,,,,,,,3.0,,3.0,9,2024.0
75681,855A MOTHER GASTON BLVD,5/13/2024,3/20/2025,1012971.0,855A,MOTHER GASTON BOULEVARD,Brooklyn,11212.0,3038550001.0,3000000.0,BK-16,42.0,920.0,BK1602,40.657621,-73.903754,40.657643,-73.903441,2025-03-20,New Construction,No,Non Prevailing Wage,,,,,5.0,,,3.0,2.0,,,,,,5.0,,5.0,16,2025.0
75682,1688 EAST 18 APARTMENTS,5/13/2024,7/24/2024,1012988.0,1688,EAST 18 STREET,Brooklyn,11229.0,3067800037.0,3000000.0,BK-15,48.0,552.0,BK1502,40.60899,-73.955424,40.608963,-73.955701,2024-07-24,New Construction,No,Non Prevailing Wage,,,,,18.0,,4.0,6.0,8.0,,,,,,18.0,,18.0,19,2024.0
74418,1350 BEDFORD AVENUE.HUDMF.FY24,5/9/2024,5/9/2024,303335.0,1350,BEDFORD AVENUE,Brooklyn,11216.0,3012050028.0,3029966.0,BK-08,35.0,221.0,BK0802,40.677214,-73.952718,40.677392,-73.953211,2024-05-09,Preservation,Yes,Non Prevailing Wage,55.0,13.0,10.0,,,1.0,,49.0,30.0,,,,,,79.0,,79.0,79,2024.0
75684,2532 GRAND AVENUE,5/9/2024,8/28/2024,1010253.0,2532,GRAND AVENUE,Bronx,10468.0,2032040019.0,2129685.0,BX-07,14.0,265.0,BX0701,40.865273,-73.901386,40.865508,-73.900905,2024-08-28,New Construction,No,Non Prevailing Wage,,,,,15.0,,5.0,10.0,,,,,,,15.0,,15.0,16,2024.0
75685,1678 DAVIDSON AVE APARTMENTS,5/6/2024,5/14/2025,60416.0,1678,DAVIDSON AVENUE,Bronx,10453.0,2028610017.0,2008345.0,BX-05,14.0,217.0,BX0501,40.846569,-73.914292,40.84649,-73.914046,2025-05-14,New Construction,No,Non Prevailing Wage,,,,,16.0,,14.0,2.0,,,,,,,16.0,,16.0,17,2025.0
75686,1041 BOYNTON AVENUE,5/6/2024,11/20/2024,1013303.0,1041,BOYNTON AVENUE,Bronx,10472.0,2037140048.0,2129695.0,BX-09,18.0,5001.0,BX0901,40.824883,-73.877367,40.82513,-73.877706,2024-11-20,New Construction,No,Non Prevailing Wage,,,,,15.0,,5.0,10.0,,,,,,,15.0,,15.0,16,2024.0
75687,368 EAST 152 ST,5/2/2024,11/20/2024,1012773.0,368,EAST 152 STREET,Bronx,10455.0,2023980011.0,2000000.0,BX-01,17.0,67.0,BX0102,40.818565,-73.918118,40.818343,-73.918125,2024-11-20,New Construction,No,Non Prevailing Wage,,,,,32.0,,7.0,6.0,14.0,5.0,,,,,32.0,,32.0,32,2024.0
74360,WEST 107TH STREET.HUDMF.FY24,4/30/2024,4/30/2024,37656.0,14,WEST 107 STREET,Manhattan,10025.0,1018420042.0,1055663.0,MN-07,7.0,193.0,MN0703,40.798943,-73.960097,40.798974,-73.960729,2024-04-30,Preservation,Yes,Non Prevailing Wage,46.0,11.0,1.0,1.0,1.0,1.0,2.0,36.0,23.0,,,,,,61.0,,61.0,61,2024.0
75690,229 WEST KINGSBRIDGE,4/30/2024,5/14/2025,1012904.0,229,WEST KINGSBRIDGE ROAD,Bronx,10463.0,2032560048.0,2000000.0,BX-08,14.0,273.0,BX0801,40.872362,-73.904442,40.872326,-73.904069,2025-05-14,New Construction,No,Non Prevailing Wage,,,,,12.0,,,12.0,,,,,,,12.0,,12.0,37,2025.0
75693,446 CYRUS PLACE,4/23/2024,11/22/2024,991364.0,446,CYRUS PLACE,Bronx,10458.0,2030410008.0,2011408.0,BX-06,15.0,385.0,BX0603,40.858666,-73.89183,40.85854,-73.892065,2024-11-22,New Construction,No,Non Prevailing Wage,,,,,9.0,,3.0,6.0,,,,,,,9.0,,9.0,10,2024.0
75695,2414 CAMBRELENG AVE APARTMENTS,4/18/2024,5/14/2025,1013453.0,2414,CAMBRELENG AVENUE,Bronx,10458.0,2030900006.0,2000000.0,BX-06,15.0,389.0,BX0603,40.854899,-73.885069,40.854833,-73.884871,2025-05-14,New Construction,No,Non Prevailing Wage,,,,,4.0,,,4.0,,,,,,,4.0,,4.0,13,2025.0
75696,208 EAST MOSHOLU PARKWAY APARTMENTS,4/16/2024,6/25/2025,1003012.0,208,EAST MOSHOLU PARKWAY S,Bronx,10458.0,2033090068.0,2017287.0,BX-07,11.0,413.0,BX0702,40.873619,-73.883309,40.873616,-73.883529,2025-06-25,New Construction,No,Non Prevailing Wage,,,,,18.0,,15.0,3.0,,,,,,,18.0,,18.0,19,2025.0
75697,649 HART STREET APARTMENTS,4/16/2024,12/18/2024,1013122.0,649,HART STREET,Brooklyn,11221.0,3032170034.0,3073106.0,BK-04,34.0,423.0,BK0401,40.69853,-73.926668,40.698733,-73.926664,2024-12-18,New Construction,No,Non Prevailing Wage,,,,,12.0,,2.0,6.0,4.0,,,,,,12.0,,12.0,12,2024.0
75698,3056 DECATUR AVENUE,4/15/2024,2/5/2025,60895.0,3056,DECATUR AVENUE,Bronx,10467.0,2033310019.0,2000000.0,BX-07,11.0,425.0,BX0703,40.870949,-73.879105,40.870678,-73.879055,2025-02-05,New Construction,No,Non Prevailing Wage,,,,,3.0,,,3.0,,,,,,,3.0,,3.0,9,2025.0
75700,HANOVER HOUSE,4/15/2024,6/18/2025,307563.0,15,HANOVER PLACE,Brooklyn,11201.0,3001610003.0,3000000.0,BK-02,33.0,37.0,BK0202,40.688827,-73.982454,40.688569,-73.982216,2025-06-18,New Construction,No,Non Prevailing Wage,,,,,95.0,,,87.0,8.0,,,,,,95.0,,95.0,314,2025.0
75703,807 WASHINGTON AVENUE,4/9/2024,6/6/2025,971016.0,807,WASHINGTON AVENUE,Brooklyn,11238.0,3011800005.0,3029644.0,BK-08,35.0,215.0,BK0801,40.672277,-73.962682,40.672205,-73.962368,2025-06-06,New Construction,No,Non Prevailing Wage,,,,,4.0,,1.0,1.0,2.0,,,,,,4.0,,4.0,11,2025.0
75705,62 MARTENSE STREET,4/9/2024,6/27/2025,1013455.0,62,MARTENSE STREET,Brooklyn,11226.0,3050890131.0,3000000.0,BK-14,40.0,79602.0,BK1401,40.65131,-73.956909,40.65109,-73.956859,2025-06-27,New Construction,No,Non Prevailing Wage,,,,,3.0,,,2.0,1.0,,,,,,3.0,,3.0,10,2025.0
75707,4568 BROADWAY,4/5/2024,6/10/2025,1013451.0,4560,BROADWAY,Manhattan,10040.0,1021720001.0,1087037.0,MN-12,10.0,283.0,MN1202,40.858831,-73.93152,40.859684,-73.930767,2025-06-10,New Construction,No,Non Prevailing Wage,,,,,28.0,,,21.0,7.0,,,,,,28.0,,28.0,92,2025.0
75710,773 GROTE STREET,4/4/2024,12/18/2024,1012528.0,773,GROTE STREET,Bronx,10460.0,2031130006.0,2129718.0,BX-06,15.0,393.0,BX0603,40.850539,-73.883606,40.850758,-73.883464,2024-12-18,New Construction,No,Non Prevailing Wage,,,,,11.0,,2.0,3.0,6.0,,,,,,11.0,,11.0,34,2024.0
75712,2339 NOSTRAND AVE APARTMENTS,4/4/2024,6/9/2025,346486.0,2339,NOSTRAND AVENUE,Brooklyn,11210.0,3075940016.0,3207054.0,BK-18,45.0,742.0,BK1801,40.627775,-73.947053,40.627618,-73.9467,2025-06-09,New Construction,No,Non Prevailing Wage,,,,,16.0,,,10.0,6.0,,,,,,16.0,,16.0,53,2025.0
75714,MASON GRAY,4/3/2024,6/20/2025,1013454.0,955,STERLING PLACE,Brooklyn,11213.0,3012420070.0,3000000.0,BK-08,36.0,341.0,BK0802,40.672347,-73.946733,40.672578,-73.946751,2025-06-20,New Construction,No,Non Prevailing Wage,,,,,48.0,,10.0,31.0,7.0,,,,,,48.0,,48.0,157,2025.0
75715,88 NORTH 1ST STREET APARTMENTS,4/3/2024,12/27/2024,1013120.0,88,NORTH 1 STREET,Brooklyn,11249.0,3023790009.0,3000000.0,BK-01,34.0,555.0,BK0102,40.716105,-73.963393,40.715927,-73.963584,2024-12-27,New Construction,No,Non Prevailing Wage,,,,,14.0,,11.0,3.0,,,,,,,14.0,,14.0,46,2024.0
75716,2829 VALENTINE AVE,4/2/2024,8/7/2024,1012601.0,2829,VALENTINE AVENUE,Bronx,10458.0,2033040136.0,2129688.0,BX-07,15.0,40302.0,BX0702,40.869061,-73.890324,40.869281,-73.890562,2024-08-07,New Construction,No,Non Prevailing Wage,,,,,81.0,,,6.0,75.0,,,,,,81.0,,81.0,81,2024.0
75717,391 MEEKER AVENUE,4/1/2024,6/13/2025,335464.0,391,MEEKER AVENUE,Brooklyn,11222.0,3027230033.0,3067912.0,BK-01,33.0,499.0,BK0101,40.718685,-73.947032,40.718745,-73.947133,2025-06-13,New Construction,No,Non Prevailing Wage,,,,,3.0,,,,3.0,,,,,,3.0,,3.0,10,2025.0
75443,1499 BEDFORD AVE,3/26/2024,1/30/2025,996625.0,1499,BEDFORD AVENUE,Brooklyn,11216.0,3012530007.0,3000000.0,BK-08,35.0,219.0,BK0802,40.671552,-73.95474,40.671585,-73.954369,2025-01-30,New Construction,No,Non Prevailing Wage,,,,,30.0,,7.0,8.0,,15.0,,,,,30.0,,30.0,99,2025.0
75454,1896 UNIVERSITY AVE APARTMENTS,3/21/2024,1/23/2025,1012397.0,1896,UNIVERSITY AVENUE,Bronx,10453.0,2028680042.0,2000000.0,BX-05,14.0,243.0,BX0501,40.852807,-73.913011,40.852673,-73.91273,2025-01-23,New Construction,No,Non Prevailing Wage,,,,,53.0,,13.0,5.0,28.0,7.0,,,,,53.0,,53.0,53,2025.0
75455,3082 VILLA AVENUE APARTMENTS,3/21/2024,8/9/2024,1012477.0,3082,VILLA AVENUE,Bronx,10468.0,2033100019.0,2000000.0,BX-07,14.0,411.0,BX0702,40.874238,-73.887932,40.874005,-73.887745,2024-08-09,New Construction,No,Non Prevailing Wage,,,,,59.0,,14.0,12.0,33.0,,,,,,59.0,,59.0,59,2024.0
75457,415 EAST 162 STREET,3/19/2024,3/26/2025,994296.0,415,EAST 162 STREET,Bronx,10451.0,2023840056.0,2001531.0,BX-03,17.0,141.0,BX0301,40.824641,-73.91299,40.824808,-73.912842,2025-03-26,New Construction,No,Non Prevailing Wage,,,,,11.0,,,11.0,,,,,,,11.0,,11.0,12,2025.0
75474,255 LORIMER STREET & 28 BOERUM,3/13/2024,12/5/2024,210985.0,24,BOERUM STREET,Brooklyn,11206.0,3030760018.0,3071329.0,BK-01,34.0,491.0,BK0104,40.705349,-73.948723,40.704986,-73.948345,2024-12-05,New Construction,No,Non Prevailing Wage,,,,,20.0,,6.0,9.0,5.0,,,,,,20.0,,20.0,66,2024.0
75464,1266 CHISHOLM STREET APARTMENTS,3/12/2024,7/15/2024,1012116.0,1266,CHISHOLM STREET,Bronx,10459.0,2029730052.0,2130430.0,BX-03,17.0,125.0,BX0303,40.829616,-73.894981,40.829836,-73.895122,2024-07-15,New Construction,No,Non Prevailing Wage,,,,,6.0,,1.0,1.0,3.0,1.0,,,,,6.0,,6.0,17,2024.0
75473,597 GRAND STREET APARTMENTS,3/8/2024,11/21/2024,302758.0,597,GRAND STREET,Brooklyn,11211.0,3027800001.0,3000000.0,BK-01,34.0,503.0,BK0104,40.711255,-73.948069,40.711469,-73.948336,2024-11-21,New Construction,No,Non Prevailing Wage,,,,,56.0,,6.0,43.0,7.0,,,,,,56.0,,56.0,185,2024.0
75422,388 VERNON AVENUE,3/7/2024,4/16/2025,396519.0,825,WILLOUGHBY AVENUE,Brooklyn,11206.0,3015890154.0,3000000.0,BK-03,36.0,287.0,BK0302,40.695444,-73.935593,40.695686,-73.935398,2025-04-16,New Construction,No,Non Prevailing Wage,,,,,8.0,,,2.0,,6.0,,,,,8.0,,8.0,8,2025.0
75422,388 VERNON AVENUE,3/7/2024,4/16/2025,1012784.0,388,VERNON AVENUE,Brooklyn,11206.0,3015890035.0,3394657.0,BK-03,36.0,287.0,BK0302,40.696172,-73.935647,40.695968,-73.935423,2025-04-16,New Construction,No,Non Prevailing Wage,,,,,3.0,,,3.0,,,,,,,3.0,,3.0,27,2025.0
75468,510 EAST 148 ST,3/7/2024,6/7/2024,934667.0,510,EAST 148 STREET,Bronx,10455.0,2022740008.0,2130748.0,BX-01,8.0,43.0,BX0101,40.814235,-73.915258,40.814034,-73.915132,2024-06-07,New Construction,No,Non Prevailing Wage,,,,,19.0,,,10.0,9.0,,,,,,19.0,,19.0,21,2024.0
75423,2411 64 STREET,3/6/2024,4/23/2025,164724.0,2411,64 STREET,Brooklyn,11204.0,3065610057.0,3000000.0,BK-11,44.0,436.0,BK1101,40.611511,-73.975926,40.611716,-73.975883,2025-04-23,New Construction,No,Non Prevailing Wage,,,,,3.0,,,1.0,2.0,,,,,,3.0,,3.0,10,2025.0
75424,2758 CRESTON AVE,3/5/2024,8/28/2024,1012287.0,2758,CRESTON AVENUE,Bronx,10468.0,2033150031.0,2129722.0,BX-07,14.0,40303.0,BX0702,40.869459,-73.893154,40.869626,-73.892684,2024-08-28,New Construction,No,Non Prevailing Wage,,,,,20.0,,20.0,,,,,,,,20.0,,20.0,21,2024.0
75425,676 MYRTLE AVENUE APARTMENTS,3/5/2024,4/16/2025,340928.0,676,MYRTLE AVENUE,Brooklyn,11205.0,3019140022.0,3000000.0,BK-03,33.0,235.0,BK0301,40.694502,-73.956755,40.69426,-73.956683,2025-04-16,New Construction,No,Non Prevailing Wage,,,,,6.0,,,,6.0,,,,,,6.0,,6.0,50,2025.0
75427,129-24 MERRICK BLVD APARTMENTS,2/29/2024,9/12/2024,1012750.0,129-24,MERRICK BOULEVARD,Queens,11434.0,4125380001.0,4270383.0,QN-12,27.0,33401.0,QN1204,40.680562,-73.763384,40.680359,-73.763609,2024-09-12,New Construction,No,Non Prevailing Wage,,,,,8.0,,,,8.0,,,,,,8.0,,8.0,8,2024.0
75428,2093 MATTHEWS AVENUE,2/29/2024,10/17/2024,94875.0,2093,MATTHEWS AVENUE,Bronx,10462.0,2042930046.0,2000000.0,BX-11,13.0,228.0,BX1101,40.853541,-73.862971,40.853681,-73.863242,2024-10-17,New Construction,No,Non Prevailing Wage,,,,,13.0,,2.0,9.0,2.0,,,,,,13.0,,13.0,37,2024.0
75430,138 BRUCKNER BOULEVARD,2/22/2024,12/20/2024,1012777.0,138,BRUCKNER BOULEVARD,Bronx,10454.0,2022600010.0,2129717.0,BX-01,8.0,1902.0,BX0101,40.803902,-73.920534,40.803457,-73.920629,2024-12-20,New Construction,No,Non Prevailing Wage,,,,,135.0,,8.0,93.0,34.0,,,,,,135.0,,135.0,448,2024.0
75431,154 LENOX ROAD,2/22/2024,2/5/2025,1012751.0,154,LENOX ROAD,Brooklyn,11226.0,3050840038.0,3000000.0,BK-17,40.0,822.0,BK1701,40.653873,-73.954424,40.653552,-73.95436,2025-02-05,New Construction,No,Non Prevailing Wage,,,,,13.0,,,6.0,7.0,,,,,,13.0,,13.0,42,2025.0
75434,22 EAST 177 ST,2/8/2024,6/11/2024,65879.0,22,EAST 177 STREET,Bronx,10453.0,2028520018.0,2008235.0,BX-05,14.0,23301.0,BX0502,40.850005,-73.909747,40.849769,-73.909813,2024-06-11,New Construction,No,Non Prevailing Wage,,,,,17.0,,17.0,,,,,,,,17.0,,17.0,18,2024.0
75435,3336 HULL AVENUE APARTMENTS,2/8/2024,5/1/2025,87522.0,3336,HULL AVENUE,Bronx,10467.0,2033520023.0,2018497.0,BX-07,11.0,42902.0,BX0703,40.87774,-73.873834,40.87772,-73.873552,2025-05-01,New Construction,No,Non Prevailing Wage,,,,,7.0,,4.0,2.0,1.0,,,,,,7.0,,7.0,14,2025.0
75436,3377 SEDGWICK AVENUE APARTMENTS,2/8/2024,3/12/2025,1013842.0,3377,SEDGWICK AVENUE,Bronx,10463.0,2032550055.0,2129698.0,BX-08,11.0,279.0,BX0801,40.880474,-73.896666,40.880573,-73.896948,2025-03-12,New Construction,No,Non Prevailing Wage,,,,,9.0,,2.0,4.0,3.0,,,,,,9.0,,9.0,30,2025.0
75437,101-07 91 STREET,2/7/2024,12/13/2024,1012778.0,101-07,91 STREET,Queens,11416.0,4090980001.0,4000000.0,QN-09,32.0,4001.0,QN0904,40.683051,-73.849289,40.683113,-73.849123,2024-12-13,New Construction,No,Non Prevailing Wage,,,,,4.0,,,4.0,,,,,,,4.0,,4.0,12,2024.0
75438,1148 WASHINGTON AVE APARTMENTS,2/6/2024,2/28/2025,939579.0,1148,WASHINGTON AVENUE,Bronx,10456.0,2023710022.0,2001293.0,BX-03,16.0,18501.0,BX0301,40.828897,-73.908226,40.829462,-73.907625,2025-02-28,New Construction,No,Non Prevailing Wage,,,,,8.0,,2.0,6.0,,,,,,,8.0,,8.0,9,2025.0
75439,95-08 147TH PLACE.,2/6/2024,6/10/2024,1011919.0,95-08,147 PLACE,Queens,11435.0,4100270010.0,4000000.0,QN-12,27.0,208.0,QN1201,40.698515,-73.805595,40.698169,-73.805646,2024-06-10,New Construction,No,Non Prevailing Wage,,,,,117.0,,19.0,39.0,59.0,,,,,,117.0,,117.0,117,2024.0
75378,873 EAST 28 ST,2/5/2024,5/22/2024,1011843.0,873,EAST 228 STREET,Bronx,10466.0,2048530011.0,2000000.0,BX-12,12.0,406.0,BX1201,40.888407,-73.854501,40.888409,-73.853778,2024-05-22,New Construction,No,Non Prevailing Wage,,,,,15.0,,5.0,9.0,1.0,,,,,,15.0,,15.0,16,2024.0
73814,164 4TH AVENUE,2/2/2024,6/5/2025,1016760.0,336,DOUGLASS STREET,Brooklyn,11217.0,,,BK-06,39.0,11901.0,BK0601,40.679558,-73.982406,,,2025-06-05,New Construction,No,Non Prevailing Wage,,38.0,,,,,3.0,29.0,6.0,,,,,,38.0,,38.0,188,2025.0
75379,1014 OGDEN AVE APARTMENTS,1/30/2024,12/27/2024,1012674.0,1014,OGDEN AVENUE,Bronx,10452.0,2025120005.0,2000000.0,BX-04,16.0,189.0,BX0402,40.833391,-73.929107,40.833221,-73.928948,2024-12-27,New Construction,No,Non Prevailing Wage,,,,,16.0,,6.0,10.0,,,,,,,16.0,,16.0,17,2024.0
75380,2067 ANTHONY AVE,1/30/2024,6/26/2024,1011555.0,2067,ANTHONY AVENUE,Bronx,10457.0,2031560024.0,2129658.0,BX-05,15.0,23502.0,BX0502,40.852648,-73.902106,40.852749,-73.902315,2024-06-26,New Construction,No,Non Prevailing Wage,,,,,51.0,,51.0,,,,,,,,51.0,,51.0,52,2024.0
75381,385 RUTLAND RD,1/25/2024,5/10/2024,1011727.0,385,RUTLAND ROAD,Brooklyn,11225.0,3048010054.0,3429355.0,BK-09,40.0,804.0,BK0902,40.659552,-73.948272,40.659774,-73.948109,2024-05-10,New Construction,No,Non Prevailing Wage,,,,,3.0,,,3.0,,,,,,,3.0,,3.0,8,2024.0
75382,53 EAST 177 ST,1/25/2024,5/21/2025,1011838.0,53,EAST 177 STREET,Bronx,10453.0,2028280001.0,2128940.0,BX-05,14.0,23301.0,BX0502,40.849961,-73.909017,40.850062,-73.908873,2025-05-21,New Construction,No,Non Prevailing Wage,,,,,80.0,,12.0,38.0,30.0,,,,,,80.0,,80.0,81,2025.0
75385,1654 GRAND APTS,1/17/2024,12/18/2024,81410.0,1654,GRAND AVENUE,Bronx,10453.0,2028670012.0,2008481.0,BX-05,14.0,217.0,BX0501,40.847152,-73.914989,40.847146,-73.914649,2024-12-18,New Construction,No,Non Prevailing Wage,,,,,19.0,,16.0,3.0,,,,,,,19.0,,19.0,20,2024.0
75388,1629 BROOKLYN AVENUE,1/15/2024,5/22/2024,1011580.0,1629,BROOKLYN AVENUE,Brooklyn,11210.0,3075640026.0,3427373.0,BK-17,45.0,784.0,BK1702,40.633292,-73.941886,40.63333,-73.94158,2024-05-22,New Construction,No,Non Prevailing Wage,,,,,7.0,,,,7.0,,,,,,7.0,,7.0,22,2024.0
75389,60 CEDAR STREET,1/15/2024,4/10/2025,218408.0,60,CEDAR STREET,Brooklyn,11221.0,3032320005.0,3000000.0,BK-04,34.0,423.0,BK0401,40.69721,-73.927329,40.697124,-73.927048,2025-04-10,New Construction,No,Non Prevailing Wage,,,,,42.0,,9.0,11.0,22.0,,,,,,42.0,,42.0,139,2025.0
75390,1598 EASTERN PARKWAY APARTMENTS,1/10/2024,1/10/2024,287676.0,1598,EASTERN PARKWAY,Brooklyn,11233.0,3014680052.0,3421424.0,BK-16,41.0,363.0,BK1601,40.67119,-73.915779,40.671167,-73.91504,2024-01-10,New Construction,No,Non Prevailing Wage,,,,,6.0,,,3.0,,3.0,,,,,6.0,,6.0,19,2024.0
75412,88-36 139 STREET,1/5/2024,6/20/2025,667616.0,138-45,JAMAICA AVENUE,Queens,11435.0,4096200033.0,4000000.0,QN-12,24.0,214.0,QN0805,40.702547,-73.813885,40.702785,-73.813668,2025-06-20,New Construction,No,Non Prevailing Wage,,,,,25.0,,6.0,15.0,4.0,,,,,,25.0,,25.0,81,2025.0
75391,1670 TOWNSEND AVE,1/4/2024,11/26/2024,115662.0,1670,TOWNSEND AVENUE,Bronx,10453.0,2028480050.0,2000000.0,BX-05,14.0,22701.0,BX0502,40.845937,-73.912449,40.845577,-73.912388,2024-11-26,New Construction,No,Non Prevailing Wage,,,,,24.0,,24.0,,,,,,,,24.0,,24.0,25,2024.0
75393,2798 WEBB AVE APARTMENTS,1/3/2024,9/19/2024,120406.0,2798,WEBB AVENUE,Bronx,10468.0,2032490141.0,2015354.0,BX-08,14.0,26702.0,BX0801,40.871692,-73.901123,40.871722,-73.90083,2024-09-19,New Construction,No,Non Prevailing Wage,,,,,16.0,,5.0,11.0,,,,,,,16.0,,16.0,17,2024.0
75395,219 EAST 203 ST,1/2/2024,5/29/2024,1010888.0,219,EAST 203 STREET,Bronx,10458.0,2033090036.0,2129681.0,BX-07,14.0,413.0,BX0702,40.873794,-73.885854,40.874011,-73.885756,2024-05-29,New Construction,No,Non Prevailing Wage,,,,,27.0,,27.0,,,,,,,,27.0,,27.0,28,2024.0
75396,2311 WHITE PLAINS ROAD,1/2/2024,8/30/2024,1011901.0,2311,WHITE PLAINS ROAD,Bronx,10467.0,2043420094.0,2129690.0,BX-11,15.0,33201.0,BX1104,40.860468,-73.867519,40.860373,-73.867967,2024-08-30,New Construction,No,Non Prevailing Wage,,,,,15.0,,3.0,4.0,8.0,,,,,,15.0,,15.0,50,2024.0
75398,1395 BRISTOW ST,1/1/2024,4/16/2025,1011401.0,1395,BRISTOW STREET,Bronx,10459.0,2029630022.0,2129728.0,BX-03,17.0,153.0,BX0303,40.832934,-73.895088,40.832954,-73.895291,2025-04-16,New Construction,No,Non Prevailing Wage,,,,,29.0,,6.0,,22.0,1.0,,,,,29.0,,29.0,29,2025.0
74954,161 MESEROLE AVENUE,12/29/2023,2/12/2025,336233.0,161,MESEROLE AVENUE,Brooklyn,11222.0,3025990025.0,3000000.0,BK-01,33.0,573.0,BK0101,40.727908,-73.950275,40.728054,-73.950412,2025-02-12,New Construction,No,Non Prevailing Wage,,,,,15.0,,5.0,10.0,,,,,,,15.0,,15.0,29,2025.0
74955,5-22 49TH AVENUE,12/29/2023,4/23/2025,438858.0,2025-05-22T00:00:00.000,49 AVENUE,Queens,11101.0,4000320035.0,4000000.0,QN-02,26.0,701.0,QN0201,40.743795,-73.95585,40.743525,-73.955561,2025-04-23,New Construction,No,Non Prevailing Wage,,,,,9.0,,,4.0,5.0,,,,,,9.0,,9.0,29,2025.0
74956,2621 GRAND AVENUE APARTMENTS,12/29/2023,7/15/2024,81630.0,2621,GRAND AVENUE,Bronx,10468.0,2032150044.0,2129696.0,BX-07,14.0,265.0,BX0701,40.867135,-73.900002,40.867234,-73.900237,2024-07-15,New Construction,No,Non Prevailing Wage,,,,,11.0,,2.0,9.0,,,,,,,11.0,,11.0,34,2024.0
74958,1058 UNIVERSITY AVE,12/28/2023,11/6/2024,1004446.0,1058,UNIVERSITY AVENUE,Bronx,10452.0,2025260040.0,2129665.0,BX-04,16.0,193.0,BX0402,40.834836,-73.930157,40.834712,-73.929987,2024-11-06,New Construction,No,Non Prevailing Wage,,,,,27.0,,1.0,11.0,15.0,,,,,,27.0,,27.0,27,2024.0
74959,39-04 29 STREET,12/28/2023,2/26/2025,415775.0,39-04,29 STREET,Queens,11101.0,4003980026.0,4004829.0,QN-01,26.0,31.0,QN0105,40.753306,-73.934682,40.753435,-73.934895,2025-02-26,New Construction,No,Non Prevailing Wage,,,,,6.0,,1.0,3.0,2.0,,,,,,6.0,,6.0,20,2025.0
73169,PARADISE MANAGEMENT CLUSTER 4.HPO.FY23,12/27/2023,12/27/2023,81719.0,1749,GRAND CONCOURSE,Bronx,10453.0,2028220019.0,2007857.0,BX-05,14.0,22701.0,BX0502,40.84593,-73.910093,40.846048,-73.910837,2023-12-27,Preservation,Yes,Non Prevailing Wage,,16.0,247.0,7.0,,1.0,,44.0,108.0,85.0,34.0,,,,271.0,,271.0,271,2023.0
73169,PARADISE MANAGEMENT CLUSTER 4.HPO.FY23,12/27/2023,12/27/2023,108509.0,2755,SEDGWICK AVENUE,Bronx,10468.0,2032530054.0,2015516.0,BX-08,14.0,273.0,BX0801,40.871273,-73.90248,40.871427,-73.902744,2023-12-27,Preservation,Yes,Non Prevailing Wage,3.0,35.0,24.0,,,1.0,,28.0,25.0,10.0,,,,,63.0,,63.0,63,2023.0
73169,PARADISE MANAGEMENT CLUSTER 4.HPO.FY23,12/27/2023,12/27/2023,108511.0,2763,SEDGWICK AVENUE,Bronx,10468.0,2032530051.0,2015515.0,BX-08,14.0,273.0,BX0801,40.871419,-73.902443,40.871765,-73.902671,2023-12-27,Preservation,Yes,Non Prevailing Wage,4.0,33.0,25.0,1.0,,,,29.0,24.0,10.0,,,,,63.0,,63.0,63,2023.0
73170,PARADISE MANAGEMENT CLUSTER 5.HPO.FY23,12/27/2023,12/27/2023,52051.0,984,BRONX PARK SOUTH,Bronx,10460.0,2031340014.0,2013274.0,BX-06,15.0,361.0,BX0601,40.844819,-73.878502,40.844682,-73.878726,2023-12-27,Preservation,Yes,Non Prevailing Wage,,,47.0,,,,,11.0,30.0,6.0,,,,,47.0,,47.0,47,2023.0
73170,PARADISE MANAGEMENT CLUSTER 5.HPO.FY23,12/27/2023,12/27/2023,52052.0,990,BRONX PARK SOUTH,Bronx,10460.0,2031340020.0,2013275.0,BX-06,15.0,361.0,BX0601,40.844728,-73.878368,40.844446,-73.878434,2023-12-27,Preservation,Yes,Non Prevailing Wage,,,52.0,,,1.0,,15.0,35.0,3.0,,,,,53.0,,53.0,53,2023.0
73483,PARADISE MANAGEMENT CLUSTER 6.HPO.FY23,12/27/2023,12/27/2023,52048.0,960,BRONX PARK SOUTH,Bronx,10460.0,2031340007.0,2013271.0,BX-06,15.0,361.0,BX0601,40.84519,-73.879025,40.845023,-73.87922,2023-12-27,Preservation,Yes,Non Prevailing Wage,,,21.0,,,,,2.0,18.0,1.0,,,,,21.0,,21.0,21,2023.0
73483,PARADISE MANAGEMENT CLUSTER 6.HPO.FY23,12/27/2023,12/27/2023,52049.0,968,BRONX PARK SOUTH,Bronx,10460.0,2031340009.0,2013272.0,BX-06,15.0,361.0,BX0601,40.845067,-73.878848,40.844908,-73.879054,2023-12-27,Preservation,Yes,Non Prevailing Wage,,,28.0,,,,,11.0,13.0,4.0,,,,,28.0,,28.0,28,2023.0
73483,PARADISE MANAGEMENT CLUSTER 6.HPO.FY23,12/27/2023,12/27/2023,97525.0,2238,MORRIS AVENUE,Bronx,10453.0,2031710001.0,2013860.0,BX-05,14.0,23704.0,BX0503,40.857059,-73.902562,40.856847,-73.902443,2023-12-27,Preservation,Yes,Non Prevailing Wage,2.0,10.0,20.0,4.0,,1.0,,25.0,12.0,,,,,,37.0,,37.0,37,2023.0
73484,PARADISE MANAGEMENT CLUSTER 7.HPO.FY23,12/27/2023,12/27/2023,49397.0,1893,BELMONT AVENUE,Bronx,10457.0,2029470040.0,2009914.0,BX-06,15.0,36901.0,BX0602,40.844789,-73.892901,40.845037,-73.892948,2023-12-27,Preservation,Yes,Non Prevailing Wage,,,28.0,,,,,10.0,12.0,6.0,,,,,28.0,,28.0,28,2023.0
73484,PARADISE MANAGEMENT CLUSTER 7.HPO.FY23,12/27/2023,12/27/2023,60381.0,2132,DALY AVENUE,Bronx,10460.0,2031290001.0,2013236.0,BX-06,15.0,363.0,BX0601,40.845524,-73.880958,40.845434,-73.880702,2023-12-27,Preservation,Yes,Non Prevailing Wage,,,37.0,,,,,12.0,15.0,5.0,5.0,,,,37.0,,37.0,37,2023.0
73484,PARADISE MANAGEMENT CLUSTER 7.HPO.FY23,12/27/2023,12/27/2023,60383.0,2138,DALY AVENUE,Bronx,10460.0,2031290004.0,2013237.0,BX-06,15.0,363.0,BX0601,40.845574,-73.880922,40.845617,-73.880571,2023-12-27,Preservation,Yes,Non Prevailing Wage,1.0,,30.0,,,,,6.0,15.0,10.0,,,,,31.0,,31.0,31,2023.0
73489,PARADISE MANAGEMENT CLUSTER 8.HPO.FY23,12/27/2023,12/27/2023,60069.0,2078,CROTONA PARKWAY,Bronx,10460.0,2031180056.0,2013098.0,BX-06,15.0,363.0,BX0601,40.845201,-73.884624,40.845116,-73.884418,2023-12-27,Preservation,Yes,Non Prevailing Wage,,,21.0,,,,,5.0,16.0,,,,,,21.0,,21.0,21,2023.0
73489,PARADISE MANAGEMENT CLUSTER 8.HPO.FY23,12/27/2023,12/27/2023,96756.0,2075,MOHEGAN AVENUE,Bronx,10460.0,2031180039.0,2092361.0,BX-06,15.0,363.0,BX0601,40.844841,-73.884049,40.844902,-73.884414,2023-12-27,Preservation,Yes,Non Prevailing Wage,,1.0,20.0,,,,,4.0,17.0,,,,,,21.0,,21.0,21,2023.0
73489,PARADISE MANAGEMENT CLUSTER 8.HPO.FY23,12/27/2023,12/27/2023,96757.0,2079,MOHEGAN AVENUE,Bronx,10460.0,2031180036.0,2013095.0,BX-06,15.0,363.0,BX0601,40.844924,-73.883981,40.845003,-73.884183,2023-12-27,Preservation,Yes,Non Prevailing Wage,,,20.0,1.0,,1.0,,6.0,16.0,,,,,,22.0,,22.0,22,2023.0
73489,PARADISE MANAGEMENT CLUSTER 8.HPO.FY23,12/27/2023,12/27/2023,806415.0,2074,CROTONA PARKWAY,Bronx,10460.0,2031180039.0,2092362.0,BX-06,15.0,363.0,BX0601,40.845105,-73.884678,40.844902,-73.884414,2023-12-27,Preservation,Yes,Non Prevailing Wage,,1.0,21.0,,,,,11.0,7.0,4.0,,,,,22.0,,22.0,22,2023.0
73490,PARADISE MANAGEMENT CLUSTER 9.HPO.FY23,12/27/2023,12/27/2023,100146.0,1146,OGDEN AVENUE,Bronx,10452.0,2025140050.0,2003265.0,BX-04,16.0,199.0,BX0402,40.836503,-73.927351,40.836335,-73.927091,2023-12-27,Preservation,Yes,Non Prevailing Wage,,4.0,44.0,,,,,36.0,12.0,,,,,,48.0,,48.0,48,2023.0
73490,PARADISE MANAGEMENT CLUSTER 9.HPO.FY23,12/27/2023,12/27/2023,121007.0,80,WEST 170 STREET,Bronx,10452.0,2025060121.0,2003099.0,BX-04,16.0,211.0,BX0402,40.840342,-73.922157,40.840114,-73.922139,2023-12-27,Preservation,Yes,Non Prevailing Wage,1.0,6.0,49.0,,,2.0,7.0,24.0,26.0,1.0,,,,,58.0,,58.0,58,2023.0
73491,PARADISE MANAGEMENT CLUSTER 10.HPO.FY23,12/27/2023,12/27/2023,65811.0,250,EAST 176 STREET,Bronx,10457.0,2028000068.0,2007537.0,BX-05,14.0,22901.0,BX0502,40.847418,-73.904936,40.847171,-73.904922,2023-12-27,Preservation,Yes,Non Prevailing Wage,1.0,1.0,50.0,7.0,,1.0,11.0,43.0,6.0,,,,,,60.0,,60.0,60,2023.0
73491,PARADISE MANAGEMENT CLUSTER 10.HPO.FY23,12/27/2023,12/27/2023,109334.0,1234,SHAKESPEARE AVENUE,Bronx,10452.0,2025060033.0,2003081.0,BX-04,16.0,199.0,BX0402,40.838034,-73.923233,40.837924,-73.923045,2023-12-27,Preservation,Yes,Non Prevailing Wage,,4.0,32.0,1.0,,1.0,,32.0,6.0,,,,,,38.0,,38.0,38,2023.0
73492,PARADISE MANAGEMENT CLUSTER 11.HPO.FY23,12/27/2023,12/27/2023,95691.0,1261,MERRIAM AVENUE,Bronx,10452.0,2025290063.0,2003518.0,BX-04,16.0,201.0,BX0402,40.839584,-73.926339,40.839252,-73.926535,2023-12-27,Preservation,Yes,Non Prevailing Wage,6.0,17.0,52.0,2.0,,1.0,,58.0,19.0,,1.0,,,,78.0,,78.0,78,2023.0
73493,PARADISE MANAGEMENT CLUSTER 12.HPO.FY23,12/27/2023,12/27/2023,88745.0,1055,JEROME AVENUE,Bronx,10452.0,2025040105.0,2003053.0,BX-04,16.0,193.0,BX0402,40.832955,-73.925212,40.833098,-73.925457,2023-12-27,Preservation,Yes,Non Prevailing Wage,1.0,11.0,51.0,1.0,,1.0,,46.0,17.0,1.0,1.0,,,,65.0,,65.0,65,2023.0
73494,PARADISE MANAGEMENT CLUSTER 13.HPO.FY23,12/27/2023,12/27/2023,65392.0,306,EAST 171 STREET,Bronx,10457.0,2027840010.0,2007237.0,BX-04,16.0,225.0,BX0403,40.838562,-73.909477,40.838368,-73.909676,2023-12-27,Preservation,Yes,Non Prevailing Wage,1.0,9.0,37.0,32.0,,,,51.0,23.0,5.0,,,,,79.0,,79.0,79,2023.0
74960,723 ARNOW AVE APARTMENTS,12/27/2023,6/5/2024,1011372.0,723,ARNOW AVENUE,Bronx,10467.0,2045460004.0,2130552.0,BX-11,12.0,33801.0,BX1104,40.867886,-73.866416,40.868043,-73.866654,2024-06-05,New Construction,No,Non Prevailing Wage,,,,,9.0,,6.0,3.0,,,,,,,9.0,,9.0,10,2024.0
74961,180 WEST 166TH STREET AKA 1095 SUMMIT AVENUE,12/26/2023,3/12/2025,112047.0,1095,SUMMIT AVENUE,Bronx,10452.0,2025260064.0,2130623.0,BX-04,16.0,193.0,BX0402,40.835625,-73.928851,40.835834,-73.929025,2025-03-12,New Construction,No,Non Prevailing Wage,,,,,9.0,,,8.0,1.0,,,,,,9.0,,9.0,30,2025.0
74464,WHGA DUNBAR HDFC.HPO.FY24,12/22/2023,12/22/2023,4168.0,2816,FREDERICK DOUGLASS BOULEVARD,Manhattan,10039.0,1020350001.0,1084148.0,MN-10,9.0,234.0,MN1002,40.825756,-73.939619,40.825088,-73.93842,2023-12-22,Preservation,Yes,Non Prevailing Wage,16.0,25.0,38.0,27.0,1.0,,,48.0,40.0,19.0,,,,,107.0,,107.0,107,2023.0
74464,WHGA DUNBAR HDFC.HPO.FY24,12/22/2023,12/22/2023,803888.0,2588,7 AVENUE,Manhattan,10039.0,1020350001.0,1084144.0,MN-10,9.0,234.0,MN1002,40.824478,-73.937033,40.825088,-73.93842,2023-12-22,Preservation,Yes,Non Prevailing Wage,9.0,16.0,22.0,40.0,7.0,,,35.0,49.0,10.0,,,,,94.0,,94.0,94,2023.0
74464,WHGA DUNBAR HDFC.HPO.FY24,12/22/2023,12/22/2023,805985.0,211,WEST 149 STREET,Manhattan,10039.0,1020350001.0,1084145.0,MN-10,9.0,234.0,MN1002,40.82449,-73.937914,40.825088,-73.93842,2023-12-22,Preservation,Yes,Non Prevailing Wage,12.0,14.0,28.0,28.0,2.0,,,17.0,62.0,5.0,,,,,84.0,,84.0,84,2023.0
74464,WHGA DUNBAR HDFC.HPO.FY24,12/22/2023,12/22/2023,805986.0,231,WEST 149 STREET,Manhattan,10039.0,1020350001.0,1084146.0,MN-10,9.0,234.0,MN1002,40.824655,-73.938308,40.825088,-73.93842,2023-12-22,Preservation,Yes,Non Prevailing Wage,19.0,16.0,26.0,22.0,1.0,,,17.0,61.0,6.0,,,,,84.0,,84.0,84,2023.0
74464,WHGA DUNBAR HDFC.HPO.FY24,12/22/2023,12/22/2023,805989.0,210,WEST 150 STREET,Manhattan,10039.0,1020350001.0,1084147.0,MN-10,9.0,234.0,MN1002,40.825066,-73.937404,40.825088,-73.93842,2023-12-22,Preservation,Yes,Non Prevailing Wage,13.0,17.0,25.0,28.0,1.0,,,20.0,62.0,2.0,,,,,84.0,,84.0,84,2023.0
74464,WHGA DUNBAR HDFC.HPO.FY24,12/22/2023,12/22/2023,805990.0,230,WEST 150 STREET,Manhattan,10039.0,1020350001.0,1084151.0,MN-10,9.0,234.0,MN1002,40.825217,-73.937762,40.825088,-73.93842,2023-12-22,Preservation,Yes,Non Prevailing Wage,12.0,15.0,27.0,29.0,1.0,,,17.0,58.0,9.0,,,,,84.0,,84.0,84,2023.0
74539,OGDEN PORTFOLIO HDFC.Y15.FY24,12/21/2023,12/21/2023,875328.0,1434,OGDEN AVENUE,Bronx,10452.0,2025220070.0,2113099.0,BX-04,16.0,211.0,BX0402,40.84337,-73.923736,40.843527,-73.923389,2023-12-21,Preservation,Yes,Non Prevailing Wage,,117.0,9.0,3.0,,1.0,24.0,41.0,63.0,2.0,,,,,130.0,,130.0,130,2023.0
74539,OGDEN PORTFOLIO HDFC.Y15.FY24,12/21/2023,12/21/2023,875382.0,228,NAGLE AVENUE,Manhattan,10034.0,1022180035.0,1087447.0,MN-12,10.0,291.0,MN1203,40.862659,-73.921856,40.863007,-73.922015,2023-12-21,Preservation,Yes,Non Prevailing Wage,,89.0,8.0,2.0,,1.0,16.0,34.0,50.0,,,,,,100.0,,100.0,100,2023.0
74539,OGDEN PORTFOLIO HDFC.Y15.FY24,12/21/2023,12/21/2023,877867.0,1457,OGDEN AVENUE,Bronx,10452.0,2025360015.0,2115561.0,BX-04,16.0,201.0,BX0402,40.843752,-73.923703,40.843763,-73.923942,2023-12-21,Preservation,Yes,Non Prevailing Wage,,48.0,11.0,,,,14.0,15.0,30.0,,,,,,59.0,,59.0,59,2023.0
74539,OGDEN PORTFOLIO HDFC.Y15.FY24,12/21/2023,12/21/2023,879907.0,2060,WHITE PLAINS ROAD,Bronx,10462.0,2042847501.0,2114768.0,BX-11,13.0,22404.0,BX1101,40.852125,-73.867771,40.851916,-73.867413,2023-12-21,Preservation,Yes,Non Prevailing Wage,,60.0,35.0,4.0,,1.0,6.0,44.0,44.0,6.0,,,,,100.0,,100.0,100,2023.0
74910,383 RUTLAND RD,12/21/2023,5/10/2024,1010222.0,383,RUTLAND ROAD,Brooklyn,11225.0,3048010154.0,3427372.0,BK-09,40.0,804.0,BK0902,40.659549,-73.948318,40.659769,-73.948181,2024-05-10,New Construction,No,Non Prevailing Wage,,,,,2.0,,,2.0,,,,,,,2.0,,2.0,6,2024.0
73431,1889 ATLANTIC AVENUE,12/19/2023,6/24/2025,1007984.0,1889,ATLANTIC AVENUE,Brooklyn,11233.0,3017140030.0,3000000.0,BK-03,41.0,299.0,BK0302,40.676975,-73.922355,40.677255,-73.922131,2025-06-24,New Construction,No,Non Prevailing Wage,,,16.0,,,,3.0,5.0,8.0,,,,,,16.0,,16.0,89,2025.0
74911,1543 BERGEN STREET,12/19/2023,3/5/2025,1015557.0,1543,BERGEN STREET,Brooklyn,11213.0,3013480077.0,3000000.0,BK-08,36.0,309.0,BK0802,40.675148,-73.932354,40.675389,-73.932476,2025-03-05,New Construction,No,Non Prevailing Wage,,,,,3.0,,,2.0,1.0,,,,,,3.0,,3.0,8,2025.0
74913,28-57 45TH STREET,12/19/2023,2/7/2025,434400.0,28-57,45 STREET,Queens,11103.0,4007190003.0,4620904.0,QN-01,22.0,147.0,QN0104,40.763299,-73.909941,40.762131,-73.91056,2025-02-07,New Construction,No,Non Prevailing Wage,,,,,3.0,,,1.0,2.0,,,,,,3.0,,3.0,9,2025.0
74944,689 EAST 223RD STREET,12/19/2023,4/23/2025,1011440.0,689,EAST 223 STREET,Bronx,10466.0,2048250012.0,2115530.0,BX-12,12.0,394.0,BX1201,40.886621,-73.861926,40.886764,-73.861604,2025-04-23,New Construction,No,Non Prevailing Wage,,,,,22.0,,6.0,4.0,12.0,,,,,,22.0,,22.0,23,2025.0
74945,17 SOMERS ST,12/18/2023,6/20/2024,1010902.0,17,SOMERS STREET,Brooklyn,11233.0,3015380061.0,3424509.0,BK-16,41.0,371.0,BK1601,40.678598,-73.912582,40.678796,-73.912874,2024-06-20,New Construction,No,Non Prevailing Wage,,,,,12.0,,1.0,8.0,3.0,,,,,,12.0,,12.0,39,2024.0
74282,SUMET I.HUDMF.FY24,12/11/2023,12/11/2023,371814.0,198,SOUTH 1 STREET,Brooklyn,11211.0,3024070012.0,3062982.0,BK-01,34.0,523.0,BK0102,40.713063,-73.959419,40.712887,-73.959535,2023-12-11,Preservation,No,Non Prevailing Wage,12.0,1.0,2.0,,,,,4.0,6.0,5.0,,,,,15.0,,15.0,15,2023.0
74282,SUMET I.HUDMF.FY24,12/11/2023,12/11/2023,371817.0,202,SOUTH 1 STREET,Brooklyn,11211.0,3024070014.0,3062983.0,BK-01,34.0,523.0,BK0102,40.713022,-73.9593,40.712843,-73.959412,2023-12-11,Preservation,No,Non Prevailing Wage,14.0,1.0,,,,,,4.0,6.0,5.0,,,,,15.0,,15.0,15,2023.0
74282,SUMET I.HUDMF.FY24,12/11/2023,12/11/2023,371819.0,204,SOUTH 1 STREET,Brooklyn,11211.0,3024070015.0,3062984.0,BK-01,34.0,523.0,BK0102,40.713,-73.959243,40.712799,-73.95929,2023-12-11,Preservation,No,Non Prevailing Wage,8.0,3.0,1.0,1.0,,,1.0,1.0,,5.0,6.0,,,,13.0,,13.0,13,2023.0
74282,SUMET I.HUDMF.FY24,12/11/2023,12/11/2023,371822.0,208,SOUTH 1 STREET,Brooklyn,11211.0,3024070017.0,3062985.0,BK-01,34.0,523.0,BK0102,40.712956,-73.959127,40.712753,-73.959167,2023-12-11,Preservation,No,Non Prevailing Wage,18.0,1.0,,,,,1.0,13.0,,5.0,,,,,19.0,,19.0,19,2023.0
74282,SUMET I.HUDMF.FY24,12/11/2023,12/11/2023,371828.0,226,SOUTH 1 STREET,Brooklyn,11211.0,3024080007.0,3063001.0,BK-01,34.0,523.0,BK0102,40.712607,-73.958175,40.712566,-73.958453,2023-12-11,Preservation,No,Non Prevailing Wage,15.0,2.0,3.0,,,1.0,,,10.0,11.0,,,,,21.0,,21.0,21,2023.0
74282,SUMET I.HUDMF.FY24,12/11/2023,12/11/2023,371830.0,228,SOUTH 1 STREET,Brooklyn,11211.0,3024080012.0,3063002.0,BK-01,34.0,523.0,BK0102,40.712582,-73.958107,40.712417,-73.958248,2023-12-11,Preservation,No,Non Prevailing Wage,17.0,2.0,,,,1.0,,,18.0,,2.0,,,,20.0,,20.0,20,2023.0
74282,SUMET I.HUDMF.FY24,12/11/2023,12/11/2023,371831.0,234,SOUTH 1 STREET,Brooklyn,11211.0,3024080014.0,3063003.0,BK-01,34.0,523.0,BK0102,40.712511,-73.957905,40.712357,-73.958082,2023-12-11,Preservation,No,Non Prevailing Wage,18.0,6.0,,,,,,2.0,22.0,,,,,,24.0,,24.0,24,2023.0
74282,SUMET I.HUDMF.FY24,12/11/2023,12/11/2023,371979.0,215,ROEBLING STREET,Brooklyn,11211.0,3024200005.0,3063142.0,BK-01,34.0,523.0,BK0102,40.711957,-73.959182,40.711926,-73.95898,2023-12-11,Preservation,No,Non Prevailing Wage,15.0,1.0,,1.0,,,1.0,5.0,6.0,5.0,,,,,17.0,,17.0,17,2023.0
74282,SUMET I.HUDMF.FY24,12/11/2023,12/11/2023,371985.0,231,SOUTH 2 STREET,Brooklyn,11211.0,3024080040.0,3063012.0,BK-01,34.0,523.0,BK0102,40.711945,-73.958435,40.712121,-73.958284,2023-12-11,Preservation,No,Non Prevailing Wage,8.0,2.0,,,,,1.0,4.0,,5.0,,,,,10.0,,10.0,10,2023.0
74282,SUMET I.HUDMF.FY24,12/11/2023,12/11/2023,371987.0,233,SOUTH 2 STREET,Brooklyn,11211.0,3024080038.0,3063011.0,BK-01,34.0,523.0,BK0102,40.711926,-73.958378,40.712082,-73.958183,2023-12-11,Preservation,No,Non Prevailing Wage,9.0,1.0,1.0,,,,,,2.0,9.0,,,,,11.0,,11.0,11,2023.0
74282,SUMET I.HUDMF.FY24,12/11/2023,12/11/2023,371990.0,237,SOUTH 2 STREET,Brooklyn,11211.0,3024080037.0,3063010.0,BK-01,34.0,523.0,BK0102,40.711885,-73.958266,40.712039,-73.95806,2023-12-11,Preservation,No,Non Prevailing Wage,12.0,2.0,2.0,,,,,10.0,2.0,4.0,,,,,16.0,,16.0,16,2023.0
74282,SUMET I.HUDMF.FY24,12/11/2023,12/11/2023,372104.0,209,SOUTH 3 STREET,Brooklyn,11211.0,3024200043.0,3063161.0,BK-01,34.0,523.0,BK0102,40.711257,-73.959045,40.711504,-73.958926,2023-12-11,Preservation,No,Non Prevailing Wage,15.0,3.0,2.0,,,,,,18.0,,2.0,,,,20.0,,20.0,20,2023.0
74918,1309 FINDLAY APARTMENTS,12/11/2023,8/21/2024,1011197.0,1309,FINDLAY AVENUE,Bronx,10456.0,2027830072.0,2007212.0,BX-04,16.0,17702.0,BX0403,40.835352,-73.910844,40.835399,-73.911115,2024-08-21,New Construction,No,Non Prevailing Wage,,,,,24.0,,13.0,10.0,,,,1.0,,,24.0,,24.0,25,2024.0
74919,1668 BERGEN STREET APARTMENTS_HPS,12/11/2023,12/27/2024,1011195.0,1668,BERGEN STREET,Brooklyn,11213.0,3013560010.0,3427364.0,BK-08,41.0,307.0,BK0802,40.674845,-73.927177,40.674587,-73.927257,2024-12-27,New Construction,No,Non Prevailing Wage,,,,,6.0,,2.0,4.0,,,,,,,6.0,,6.0,10,2024.0
73843,RED OAK.HUDMF.FY24,12/8/2023,12/8/2023,37598.0,149,WEST 106 STREET,Manhattan,10025.0,1018610010.0,1055957.0,MN-07,7.0,193.0,MN0703,40.800111,-73.964914,40.800281,-73.964199,2023-12-08,Preservation,Yes,Non Prevailing Wage,210.0,12.0,3.0,,4.0,1.0,26.0,203.0,1.0,,,,,,230.0,,230.0,230,2023.0
74920,2754 CRESTON AVENUE,12/8/2023,6/10/2025,59296.0,2754,CRESTON AVENUE,Bronx,10468.0,2033150029.0,2129723.0,BX-07,14.0,40303.0,BX0702,40.869377,-73.89323,40.869511,-73.892782,2025-06-10,New Construction,No,Non Prevailing Wage,,,,,21.0,,21.0,,,,,,,,21.0,,21.0,22,2025.0
74254,VILLA HERMOSA.HUDMF.FY24,12/7/2023,12/7/2023,804646.0,22,EAST 108 STREET,Manhattan,10029.0,1016130006.0,1076337.0,MN-11,9.0,17401.0,MN1101,40.795201,-73.949264,40.79485,-73.949384,2023-12-07,Preservation,Yes,Non Prevailing Wage,189.0,53.0,20.0,5.0,4.0,1.0,,50.0,162.0,60.0,,,,,272.0,,272.0,272,2023.0
74921,139 FROST ST,12/7/2023,8/30/2024,994162.0,137,FROST STREET,Brooklyn,11211.0,3027340035.0,3429170.0,BK-01,34.0,497.0,BK0104,40.717979,-73.945986,40.718176,-73.946098,2024-08-30,New Construction,No,Non Prevailing Wage,,,,,9.0,,2.0,2.0,5.0,,,,,,9.0,,9.0,28,2024.0
74923,950 OGDEN AVENUE APARTMENTS,12/6/2023,5/24/2024,1011336.0,950,OGDEN AVENUE,Bronx,10452.0,2025110055.0,2000000.0,BX-04,16.0,189.0,BX0402,40.831734,-73.930044,40.831657,-73.929792,2024-05-24,New Construction,No,Non Prevailing Wage,,,,,13.0,,2.0,3.0,7.0,1.0,,,,,13.0,,13.0,13,2024.0
74925,3854 BAILEY AVE,12/5/2023,8/1/2024,46592.0,3854,BAILEY AVENUE,Bronx,10463.0,2032630039.0,2092479.0,BX-08,11.0,279.0,BX0801,40.885227,-73.895968,40.88498,-73.895802,2024-08-01,New Construction,No,Non Prevailing Wage,,,,,14.0,,14.0,,,,,,,,14.0,,14.0,15,2024.0
74844,148-15 89 AVE,11/30/2023,10/8/2024,1010942.0,148-15,89 AVENUE,Queens,11435.0,4096930060.0,4310504.0,QN-12,27.0,238.0,QN1201,40.704238,-73.80728,40.704638,-73.807121,2024-10-08,New Construction,No,Non Prevailing Wage,,,,,21.0,,1.0,20.0,,,,,,,21.0,,21.0,69,2024.0
74846,3633 KINGSBRIDGE AVENUE APARTMENTS,11/30/2023,3/26/2025,89762.0,3633,KINGSBRIDGE AVENUE,Bronx,10463.0,2057660882.0,2000000.0,BX-08,11.0,285.0,BX0802,40.884601,-73.901733,40.884727,-73.901947,2025-03-26,New Construction,No,Non Prevailing Wage,,,,,3.0,,,3.0,,,,,,,3.0,,3.0,9,2025.0
74847,491 EVERGREEN AVENUE,11/30/2023,6/20/2024,290786.0,491,EVERGREEN AVENUE,Brooklyn,11221.0,3033680007.0,3000000.0,BK-04,37.0,415.0,BK0402,40.690955,-73.916666,40.69115,-73.9165,2024-06-20,New Construction,No,Non Prevailing Wage,,,,,3.0,,,1.0,2.0,,,,,,3.0,,3.0,10,2024.0
73164,ST. MATTHEW & ST. TIMOTHY'S HDFC.HPO.FY23,11/29/2023,11/29/2023,35998.0,122,WEST 83 STREET,Manhattan,10024.0,1012130042.0,1032080.0,MN-07,6.0,169.0,MN0702,40.784897,-73.974473,40.784807,-73.974824,2023-11-29,Preservation,Yes,Non Prevailing Wage,,35.0,36.0,,,1.0,16.0,38.0,13.0,5.0,,,,,72.0,,72.0,72,2023.0
74848,1166 FOX STREET_HPS,11/29/2023,8/20/2024,996231.0,1166,FOX STREET,Bronx,10459.0,2029740030.0,2000000.0,BX-03,17.0,125.0,BX0303,40.828723,-73.89383,40.828898,-73.893552,2024-08-20,New Construction,No,Non Prevailing Wage,,,,,58.0,,,58.0,,,,,,,58.0,,58.0,59,2024.0
74849,2-24 26TH AVE APARTMENTS,11/29/2023,9/26/2024,412315.0,2025-02-24T00:00:00.000,26 AVENUE,Queens,11102.0,4009140022.0,4000000.0,QN-01,22.0,87.0,QN0102,40.776661,-73.9342,40.776241,-73.93411,2024-09-26,New Construction,No,Non Prevailing Wage,,,,,42.0,,3.0,29.0,10.0,,,,,,42.0,,42.0,137,2024.0
74851,1716 EAST 54 STREET,11/27/2023,3/12/2025,270046.0,1716,EAST 54 STREET,Brooklyn,11234.0,3084930061.0,3239752.0,BK-18,46.0,682.0,BK1801,40.615785,-73.922653,40.615712,-73.922923,2025-03-12,New Construction,No,Non Prevailing Wage,,,,,4.0,,,,4.0,,,,,,4.0,,4.0,11,2025.0
74852,654 MADISON STREET APARTMENTS,11/27/2023,5/31/2024,1010976.0,654,MADISON STREET,Brooklyn,11221.0,3016460011.0,3000000.0,BK-03,36.0,293.0,BK0302,40.686862,-73.931877,40.686615,-73.932072,2024-05-31,New Construction,No,Non Prevailing Wage,,,,,12.0,,2.0,4.0,6.0,,,,,,12.0,,12.0,38,2024.0
74853,3103 SEDGWICK AVE APARTMENTS,11/23/2023,12/18/2024,973914.0,3103,SEDGWICK AVENUE,Bronx,10463.0,2032540072.0,2000000.0,BX-08,14.0,277.0,BX0801,40.876766,-73.899398,40.876909,-73.899662,2024-12-18,New Construction,No,Non Prevailing Wage,,,,,13.0,,,,12.0,1.0,,,,,13.0,,13.0,42,2024.0
74854,61 DELMONICA PLACE APARTMENTS,11/22/2023,7/3/2024,1011921.0,61,DELMONICO PLACE,Brooklyn,11206.0,3017320001.0,3428846.0,BK-03,36.0,257.0,BK0301,40.698411,-73.945234,40.698438,-73.94505,2024-07-03,New Construction,No,Non Prevailing Wage,,,,,3.0,,,3.0,,,,,,,3.0,,3.0,8,2024.0
74855,261 BEDFORD PARK BLVD APARTMENTS,11/21/2023,7/24/2024,1008155.0,261,BEDFORD PARK BOULEVARD,Bronx,10458.0,2032980009.0,2000000.0,BX-07,11.0,415.0,BX0702,40.870674,-73.886087,40.870852,-73.885826,2024-07-24,New Construction,No,Non Prevailing Wage,,,,,27.0,,12.0,15.0,,,,,,,27.0,,27.0,29,2024.0
74856,236 BERRY STREET APARTMENTS,11/20/2023,2/20/2025,302492.0,123,GRAND STREET,Brooklyn,11249.0,3023790024.0,3000000.0,BK-01,34.0,555.0,BK0102,40.715227,-73.963076,40.715438,-73.962719,2025-02-20,New Construction,No,Non Prevailing Wage,,,,,15.0,,,15.0,,,,,,,15.0,,15.0,50,2025.0
74857,3002 PERRY AVENUE,11/20/2023,6/26/2024,1010792.0,3002,PERRY AVENUE,Bronx,10458.0,2032810010.0,2129686.0,BX-07,11.0,415.0,BX0702,40.870821,-73.882865,40.870758,-73.882489,2024-06-26,New Construction,No,Non Prevailing Wage,,,,,23.0,,23.0,,,,,,,,23.0,,23.0,24,2024.0
74859,1720 LINCOLN PLACE APARTMENTS,11/15/2023,5/22/2024,1010806.0,1720,LINCOLN PLACE,Brooklyn,11233.0,,,BK-16,41.0,361.0,BK1601,40.669065,-73.918831,,,2024-05-22,New Construction,No,Non Prevailing Wage,,,,,11.0,,2.0,,3.0,6.0,,,,,11.0,,11.0,11,2024.0
74981,721 ARNOW AVENUE APARTMENTS,11/14/2023,6/5/2024,1010777.0,721,ARNOW AVENUE,Bronx,10467.0,2045460001.0,2130551.0,BX-11,12.0,33801.0,BX1104,40.867886,-73.866481,40.86804,-73.866463,2024-06-05,New Construction,No,Non Prevailing Wage,,,,,9.0,,,5.0,4.0,,,,,,9.0,,9.0,10,2024.0
74982,43-15 63RD STREET,11/13/2023,12/12/2024,454706.0,43-15,63 STREET,Queens,11377.0,4013400009.0,4623654.0,QN-02,26.0,249.0,QN0203,40.742002,-73.90225,40.742005,-73.901962,2024-12-12,New Construction,No,Non Prevailing Wage,,,,,3.0,,,1.0,2.0,,,,,,3.0,,3.0,7,2024.0
74984,50 VARET STREET APARTMENTS,11/13/2023,4/23/2025,989432.0,43,GRAHAM AVENUE,Brooklyn,11206.0,3031130017.0,3000000.0,BK-01,34.0,491.0,BK0104,40.702875,-73.942478,40.702845,-73.942781,2025-04-23,New Construction,No,Non Prevailing Wage,,,,,11.0,,3.0,6.0,2.0,,,,,,11.0,,11.0,35,2025.0
74986,959 ANDERSON AVE,11/13/2023,5/22/2024,1010742.0,959,ANDERSON AVENUE,Bronx,10452.0,2025070032.0,2129679.0,BX-04,16.0,189.0,BX0402,40.831343,-73.927888,40.831486,-73.928126,2024-05-22,New Construction,No,Non Prevailing Wage,,,,,24.0,,,15.0,9.0,,,,,,24.0,,24.0,25,2024.0
74988,536 EAST 183 STREET APARTMENTS,11/10/2023,8/30/2024,1010805.0,536,EAST 183 STREET,Bronx,10458.0,2030510026.0,2128521.0,BX-06,15.0,385.0,BX0603,40.854417,-73.891461,40.85428,-73.891649,2024-08-30,New Construction,No,Non Prevailing Wage,,,,,37.0,,26.0,10.0,1.0,,,,,,37.0,,37.0,38,2024.0
74989,32-53 101 STREET,11/9/2023,8/28/2024,684438.0,101-01,NORTHERN BOULEVARD,Queens,11368.0,4016967501.0,4000000.0,QN-03,21.0,365.0,QN0302,40.757464,-73.86733,40.757728,-73.867287,2024-08-28,New Construction,No,Non Prevailing Wage,,,,,8.0,,,,8.0,,,,,,8.0,,8.0,24,2024.0
74991,2001 CRESTON AVENUE APARTMENTS,11/8/2023,2/28/2024,1010901.0,2001,CRESTON AVENUE,Bronx,10453.0,2028070079.0,2129667.0,BX-05,14.0,241.0,BX0502,40.851487,-73.905986,40.851665,-73.906058,2024-02-28,New Construction,No,Non Prevailing Wage,,,,,48.0,,4.0,23.0,17.0,,4.0,,,,48.0,,48.0,49,2024.0
74992,2270 BRONX PARK EAST APARTMENTS,11/8/2023,8/28/2024,51999.0,2270,BRONX PARK EAST,Bronx,10467.0,2043400006.0,2129683.0,BX-11,15.0,33201.0,BX1104,40.859399,-73.870811,40.859316,-73.870417,2024-08-28,New Construction,No,Non Prevailing Wage,,,,,10.0,,2.0,5.0,3.0,,,,,,10.0,,10.0,33,2024.0
74993,779 FLATBUSH AVENUE APARTMENTS,11/8/2023,6/16/2025,292926.0,779,FLATBUSH AVENUE,Brooklyn,11226.0,3050640001.0,3328167.0,BK-14,40.0,79602.0,BK1401,40.653853,-73.959495,40.653756,-73.95916,2025-06-16,New Construction,No,Non Prevailing Wage,,,,,9.0,,,6.0,3.0,,,,,,9.0,,9.0,27,2025.0
74995,53-10 102ND STREET,11/7/2023,11/27/2024,513538.0,53-10,102 STREET,Queens,11368.0,4019380018.0,4000000.0,QN-04,21.0,44301.0,QN0402,40.741214,-73.859207,40.740959,-73.859305,2024-11-27,New Construction,No,Non Prevailing Wage,,,,,3.0,,,2.0,1.0,,,,,,3.0,,3.0,7,2024.0
73465,828 METROPOLITAN AVENUE,11/1/2023,,1010645.0,828,METROPOLITAN AVENUE,Brooklyn,11211.0,3029160014.0,3000000.0,BK-01,34.0,481.0,BK0104,40.71468,-73.940816,40.714466,-73.941437,2024-12-19,New Construction,No,Non Prevailing Wage,,12.0,15.0,5.0,,,2.0,18.0,12.0,,,,,,32.0,,32.0,136,2024.0
74998,49 BORINQUEN PLACE,10/31/2023,6/20/2024,1011516.0,49,BORINQUEN PLACE,Brooklyn,11211.0,,,BK-01,34.0,523.0,BK0102,40.710487,-73.956705,,,2024-06-20,New Construction,No,Non Prevailing Wage,,,,,5.0,,,,5.0,,,,,,5.0,,5.0,16,2024.0
74999,115 WEST 190 STREET APARTMENTS,10/30/2023,6/12/2024,121294.0,115,WEST 190 STREET,Bronx,10468.0,2032200115.0,2000000.0,BX-07,14.0,263.0,BX0701,40.865596,-73.903819,40.865799,-73.903717,2024-06-12,New Construction,No,Non Prevailing Wage,,,,,12.0,,1.0,8.0,3.0,,,,,,12.0,,12.0,37,2024.0
74814,3001 GRAND CONCOURSE,10/29/2023,6/25/2025,81912.0,3003,GRAND CONCOURSE,Bronx,10468.0,2033100074.0,2000000.0,BX-07,14.0,411.0,BX0702,40.873137,-73.887204,40.87297,-73.88779,2025-06-25,New Construction,No,Non Prevailing Wage,,,,,43.0,,8.0,27.0,8.0,,,,,,43.0,,43.0,44,2025.0
74815,88-06 161 STREET,10/29/2023,7/24/2024,1012319.0,88-06,161 STREET,Queens,11432.0,4097640063.0,4000000.0,QN-12,24.0,44602.0,QN1201,40.707847,-73.800871,40.707856,-73.801145,2024-07-24,New Construction,No,Non Prevailing Wage,,,,,14.0,,,12.0,2.0,,,,,,14.0,,14.0,45,2024.0
75399,840 NEW YORK AVENUE,10/27/2023,11/27/2024,1010703.0,840,NEW YORK AVENUE,Brooklyn,11203.0,3048530064.0,3427334.0,BK-17,40.0,818.0,BK1701,40.653296,-73.946936,40.653266,-73.947267,2024-11-27,New Construction,No,Non Prevailing Wage,,,,,5.0,,,2.0,3.0,,,,,,5.0,,5.0,15,2024.0
74817,2680 CRESTON AVENUE APARTMENTS,10/26/2023,1/9/2024,1010534.0,2680,CRESTON AVENUE,Bronx,10468.0,2033140011.0,2129661.0,BX-07,14.0,40304.0,BX0702,40.867249,-73.894962,40.867021,-73.894865,2024-01-09,New Construction,No,Non Prevailing Wage,,,,,53.0,,,39.0,14.0,,,,,,53.0,,53.0,54,2024.0
74818,499 CONCORD AVENUE APARTMENTS,10/26/2023,6/12/2024,58356.0,495,CONCORD AVENUE,Bronx,10455.0,2025790040.0,2000000.0,BX-01,8.0,35.0,BX0101,40.811853,-73.908596,40.811792,-73.908799,2024-06-12,New Construction,No,Non Prevailing Wage,,,,,10.0,,,5.0,5.0,,,,,,10.0,,10.0,33,2024.0
74819,413 THROOP AVENUE APARTMENTS,10/24/2023,6/23/2025,381193.0,413,THROOP AVENUE,Brooklyn,11221.0,3018010001.0,3000000.0,BK-03,36.0,279.0,BK0302,40.688874,-73.942101,40.688852,-73.941802,2025-06-23,New Construction,No,Non Prevailing Wage,,,,,2.0,,,1.0,1.0,,,,,,2.0,,2.0,6,2025.0
74820,11 WEIRFIELD STREET,10/23/2023,5/3/2024,1010492.0,11,WEIRFIELD STREET,Brooklyn,11221.0,3033947501.0,3427369.0,BK-04,37.0,397.0,BK0402,40.686338,-73.915799,40.686506,-73.915979,2024-05-03,New Construction,No,Non Prevailing Wage,,,,,3.0,,,1.0,2.0,,,,,,3.0,,3.0,10,2024.0
74821,27-16 21 ST,10/23/2023,5/15/2024,1010454.0,27-16,21 STREET,Queens,11102.0,4005390032.0,4620917.0,QN-01,22.0,83.0,QN0102,40.771855,-73.926244,40.7719,-73.92658,2024-05-15,New Construction,No,Non Prevailing Wage,,,,,15.0,,,7.0,8.0,,,,,,15.0,,15.0,49,2024.0
74823,1297 COLLEGE AVE,10/19/2023,7/15/2024,1010339.0,1297,COLLEGE AVENUE,Bronx,10456.0,2027850075.0,2000000.0,BX-04,16.0,17702.0,BX0403,40.835257,-73.911928,40.835257,-73.912062,2024-07-15,New Construction,No,Non Prevailing Wage,,,,,11.0,,,8.0,,3.0,,,,,11.0,,11.0,12,2024.0
74824,2638 DECATUR AVE,10/19/2023,12/27/2023,991367.0,2638,DECATUR AVENUE,Bronx,10458.0,2032770008.0,2016360.0,BX-07,15.0,397.0,BX0603,40.863802,-73.889826,40.863689,-73.88962,2023-12-27,New Construction,No,Non Prevailing Wage,,,,,23.0,,16.0,5.0,2.0,,,,,,23.0,,23.0,24,2023.0
74825,751 ROSEDALE AVE,10/19/2023,8/21/2024,1010336.0,751,ROSEDALE AVENUE,Bronx,10473.0,2035940041.0,2130545.0,BX-09,18.0,2002.0,BX0902,40.819826,-73.866462,40.820329,-73.866898,2024-08-21,New Construction,No,Non Prevailing Wage,,,,,32.0,,4.0,22.0,6.0,,,,,,32.0,,32.0,33,2024.0
74826,80 LINDEN BOULEVARD,10/19/2023,8/21/2024,327524.0,80,LINDEN BOULEVARD,Brooklyn,11226.0,3050870008.0,3000000.0,BK-17,40.0,822.0,BK1701,40.652336,-73.955452,40.65204,-73.95577,2024-08-21,New Construction,No,Non Prevailing Wage,,,,,14.0,,,8.0,6.0,,,,,,14.0,,14.0,45,2024.0
74828,146-61 105 AVENUE APARTMENTS,10/17/2023,9/26/2024,968509.0,146-61,105 AVENUE,Queens,11435.0,4100550019.0,4539499.0,QN-12,28.0,204.0,QN1201,40.695227,-73.804212,40.695606,-73.804114,2024-09-26,New Construction,No,Non Prevailing Wage,,,,,6.0,,,6.0,,,,,,,6.0,,6.0,7,2024.0
73495,PARADISE MANAGEMENT CLUSTER 14.HPO.FY23,10/16/2023,10/16/2023,92670.0,1871,LORING PLACE,Bronx,10453.0,2028790192.0,2009117.0,BX-05,14.0,24501.0,BX0501,40.853234,-73.915303,40.853827,-73.915201,2023-10-16,Preservation,Yes,Non Prevailing Wage,,14.0,48.0,1.0,,1.0,,19.0,28.0,17.0,,,,,64.0,,64.0,64,2023.0
73496,PARADISE MANAGEMENT CLUSTER 15.HPO.FY23,10/16/2023,10/16/2023,122007.0,190,WEST BURNSIDE AVENUE,Bronx,10453.0,2028790170.0,2009110.0,BX-05,14.0,24501.0,BX0501,40.854459,-73.915981,40.854391,-73.916393,2023-10-16,Preservation,Yes,Non Prevailing Wage,,10.0,60.0,,,1.0,,17.0,44.0,10.0,,,,,71.0,,71.0,71,2023.0
74830,763 PARK AVENUE APARTMENTS,10/16/2023,7/3/2024,351315.0,763,PARK AVENUE,Brooklyn,11206.0,3017320136.0,3429283.0,BK-03,36.0,257.0,BK0301,40.698136,-73.944805,40.698331,-73.944974,2024-07-03,New Construction,No,Non Prevailing Wage,,,,,3.0,,,,3.0,,,,,,3.0,,3.0,8,2024.0
74831,3418 3RD AVENUE APARTMENTS,10/12/2023,8/9/2024,113759.0,3418,3 AVENUE,Bronx,10456.0,2026080034.0,2129677.0,BX-03,17.0,18502.0,BX0301,40.828616,-73.906886,40.828704,-73.906531,2024-08-09,New Construction,No,Non Prevailing Wage,,,,,13.0,,3.0,8.0,2.0,,,,,,13.0,,13.0,43,2024.0
74834,254 AMBOY STREET,10/9/2023,6/7/2024,184205.0,254,AMBOY STREET,Brooklyn,11212.0,3035560041.0,3081733.0,BK-16,41.0,898.0,BK1602,40.664205,-73.913261,40.664238,-73.913538,2024-06-07,New Construction,No,Non Prevailing Wage,,,,,10.0,,2.0,3.0,5.0,,,,,,10.0,,10.0,11,2024.0
74558,352 MEEKER AVENUE APARTMENTS,9/29/2023,9/19/2024,1010119.0,352,MEEKER AVENUE,Brooklyn,11211.0,3027380010.0,3429036.0,BK-01,34.0,501.0,BK0104,40.717639,-73.947895,40.717573,-73.947649,2024-09-19,New Construction,No,Non Prevailing Wage,,,,,9.0,,,9.0,,,,,,,9.0,,9.0,27,2024.0
74560,2008 CROTONA AVENUE APARTMENTS,9/28/2023,11/27/2024,59859.0,2008,CROTONA AVENUE,Bronx,10457.0,2030950006.0,2012657.0,BX-06,15.0,371.0,BX0602,40.846933,-73.889836,40.847051,-73.889384,2024-11-27,New Construction,No,Non Prevailing Wage,,,,,3.0,,,1.0,2.0,,,,,,3.0,,3.0,8,2024.0
74561,209 NORTH 11 STREET,9/27/2023,12/6/2024,345740.0,203,NORTH 11 STREET,Brooklyn,11211.0,3022920029.0,3429695.0,BK-01,33.0,519.0,BK0102,40.718943,-73.953557,40.71905,-73.953301,2024-12-06,New Construction,No,Non Prevailing Wage,,,,,16.0,,,16.0,,,,,,,16.0,,16.0,53,2024.0
74562,37-25 32ND STREET APARTMENTS,9/26/2023,9/18/2024,1010366.0,37-25,32 STREET,Queens,11101.0,4003740010.0,4531227.0,QN-01,26.0,55.0,QN0105,40.754168,-73.930595,40.753778,-73.930603,2024-09-18,New Construction,No,Non Prevailing Wage,,,,,7.0,,,,7.0,,,,,,7.0,,7.0,21,2024.0
74563,26-31 3RD STREET,9/26/2023,2/20/2025,399229.0,26-33,3 STREET,Queens,11102.0,4009107503.0,4000000.0,QN-01,22.0,87.0,QN0102,40.775892,-73.933782,40.775447,-73.93375,2025-02-20,New Construction,No,Non Prevailing Wage,,,,,5.0,,1.0,3.0,1.0,,,,,,5.0,,5.0,16,2025.0
74947,488 MARCUS GARVEY BOULEVARD,9/22/2023,5/7/2024,1010785.0,488,MARCUS GARVEY BOULEVARD,Brooklyn,11216.0,3018590029.0,3332256.0,BK-03,36.0,273.0,BK0302,40.680204,-73.937501,40.680165,-73.937757,2024-05-07,New Construction,No,Non Prevailing Wage,,,,,6.0,,,6.0,,,,,,,6.0,,6.0,18,2024.0
74564,3308 GLENWOOD ROAD APARTMENTS,9/21/2023,2/28/2024,1010117.0,3308,GLENWOOD ROAD,Brooklyn,11210.0,3075610041.0,3000000.0,BK-17,45.0,784.0,BK1702,40.634183,-73.944678,40.633947,-73.944429,2024-02-28,New Construction,No,Non Prevailing Wage,,,,,12.0,,,7.0,5.0,,,,,,12.0,,12.0,38,2024.0
74566,351 EAST 10TH STREET,9/21/2023,6/18/2025,11556.0,351,EAST 10 STREET,Manhattan,10009.0,1003930059.0,1091774.0,MN-03,2.0,28.0,MN0303,40.726671,-73.979417,40.726819,-73.979226,2025-06-18,New Construction,No,Non Prevailing Wage,,,3.0,,8.0,,2.0,6.0,3.0,,,,,,11.0,,11.0,28,2025.0
74567,833 & 837 MAPLE STREET,9/20/2023,12/20/2024,332437.0,837,MAPLE STREET,Brooklyn,11203.0,3045880098.0,3000000.0,BK-09,41.0,88001.0,BK0902,40.662016,-73.932144,40.662228,-73.932042,2024-12-05,New Construction,No,Non Prevailing Wage,,,,,4.0,,,2.0,2.0,,,,,,4.0,,4.0,13,2024.0
74567,833 & 837 MAPLE STREET,9/20/2023,12/20/2024,1004447.0,833,MAPLE STREET,Brooklyn,11203.0,3045880102.0,3000000.0,BK-09,41.0,88001.0,BK0902,40.662008,-73.932266,40.66222,-73.932165,2024-12-20,New Construction,No,Non Prevailing Wage,,,,,6.0,,,6.0,,,,,,,6.0,,6.0,20,2024.0
74568,637 EAST 223RD STREET,9/20/2023,12/7/2023,1010177.0,637,EAST 223 STREET,Bronx,10466.0,2048250041.0,2062952.0,BX-12,12.0,394.0,BX1201,40.887037,-73.863231,40.887296,-73.863306,2023-12-07,New Construction,No,Non Prevailing Wage,,,,,43.0,,3.0,29.0,10.0,1.0,,,,,43.0,,43.0,44,2023.0
74569,148-09 90 AVE,9/19/2023,9/18/2024,1009581.0,148-09,90 AVENUE,Queens,11435.0,4096810095.0,4623824.0,QN-12,27.0,240.0,QN1201,40.703296,-73.80698,40.703554,-73.806832,2024-09-18,New Construction,No,Non Prevailing Wage,,,,,9.0,,,6.0,2.0,1.0,,,,,9.0,,9.0,10,2024.0
74573,26-36 4TH STREET,9/19/2023,5/30/2025,992498.0,26-36,4 STREET,Queens,11102.0,4009100039.0,4000000.0,QN-01,22.0,87.0,QN0102,40.775573,-73.932938,40.775247,-73.933433,2025-05-30,New Construction,No,Non Prevailing Wage,,,,,3.0,,,3.0,,,,,,,3.0,,3.0,10,2025.0
68119,TBK1005 - 685 NOSTRAND AVENUE,9/15/2023,11/15/2024,346909.0,685,NOSTRAND AVENUE,Brooklyn,11216.0,3012340001.0,3031228.0,BK-08,36.0,31701.0,BK0802,40.673817,-73.950117,40.673844,-73.949749,2024-11-15,Preservation,No,Non Prevailing Wage,,8.0,15.0,,,1.0,1.0,7.0,11.0,5.0,,,,,24.0,,24.0,24,2024.0
74579,42 GROVE ST,9/13/2023,2/5/2024,1009767.0,42,GROVE STREET,Brooklyn,11221.0,3033210019.0,3076032.0,BK-04,37.0,397.0,BK0402,40.691396,-73.922641,40.691226,-73.922522,2024-02-05,New Construction,No,Non Prevailing Wage,,,,,3.0,,,3.0,,,,,,,3.0,,3.0,7,2024.0
74580,1244 NEW YORK AVE,9/13/2023,12/20/2023,1010025.0,1244,NEW YORK AVENUE,Brooklyn,11203.0,3049490021.0,3111366.0,BK-17,45.0,830.0,BK1702,40.64253,-73.945788,40.642497,-73.94609,2023-12-20,New Construction,No,Non Prevailing Wage,,,,,5.0,,1.0,,,4.0,,,,,5.0,,5.0,16,2023.0
74581,52 WEST 176TH STREET,9/13/2023,6/12/2024,121085.0,52,WEST 176 STREET,Bronx,10453.0,2028660077.0,2008464.0,BX-05,14.0,21502.0,BX0501,40.848655,-73.914257,40.848538,-73.914774,2024-06-12,New Construction,No,Non Prevailing Wage,,,,,24.0,,15.0,7.0,2.0,,,,,,24.0,,24.0,25,2024.0
74583,923 BROADWAY APARTMENTS,9/12/2023,5/31/2024,214348.0,923,BROADWAY,Brooklyn,11206.0,3031500001.0,3071866.0,BK-04,34.0,389.0,BK0401,40.697476,-73.936111,40.697659,-73.935934,2024-05-31,New Construction,No,Non Prevailing Wage,,,,,3.0,,,,3.0,,,,,,3.0,,3.0,10,2024.0
74660,2330 CAMBRELENG AVENUE,9/11/2023,12/27/2024,54870.0,2330,CAMBRELENG AVENUE,Bronx,10458.0,2030890018.0,2000000.0,BX-06,15.0,391.0,BX0603,40.85345,-73.88577,40.853371,-73.885531,2024-12-27,New Construction,No,Non Prevailing Wage,,,,,14.0,,3.0,4.0,7.0,,,,,,14.0,,14.0,44,2024.0
74948,1707 DEAN STREET APARTMENTS,9/7/2023,9/7/2023,965078.0,1705,DEAN STREET,Brooklyn,11213.0,3013420066.0,3000000.0,BK-08,36.0,309.0,BK0802,40.675883,-73.931502,40.676116,-73.931552,2023-09-07,New Construction,No,Non Prevailing Wage,,,,,4.0,,,4.0,,,,,,,4.0,,4.0,13,2023.0
74661,1417 AVENUE J,9/6/2023,6/26/2025,188866.0,1417,AVENUE J,Brooklyn,11230.0,3067077501.0,3179617.0,BK-14,44.0,530.0,BK1403,40.625116,-73.962074,40.625398,-73.961688,2025-06-26,New Construction,No,Non Prevailing Wage,,,,,6.0,,,5.0,1.0,,,,,,6.0,,6.0,17,2025.0
74662,318 & 322 EAST 32ND STREET,9/5/2023,3/5/2025,257630.0,322,EAST 32 STREET,Brooklyn,11226.0,3049480015.0,3429316.0,BK-17,45.0,830.0,BK1702,40.642657,-73.946793,40.642742,-73.947074,2025-03-05,New Construction,No,Non Prevailing Wage,,,,,2.0,,,1.0,,1.0,,,,,2.0,,2.0,6,2025.0
74663,2180 ARTHUR AVENUE,9/5/2023,4/24/2025,46198.0,2180,ARTHUR AVENUE,Bronx,10457.0,2030700288.0,2000000.0,BX-06,15.0,373.0,BX0602,40.851531,-73.890302,40.851714,-73.889814,2025-04-24,New Construction,No,Non Prevailing Wage,,,,,45.0,,5.0,35.0,5.0,,,,,,45.0,,45.0,46,2025.0
74929,26-12 4TH STREET,9/5/2023,3/15/2024,1011370.0,26-12,4 STREET,Queens,11102.0,4009100027.0,4000000.0,QN-01,22.0,87.0,QN0102,40.775823,-73.932808,40.775848,-73.933118,2024-03-15,New Construction,No,Non Prevailing Wage,,,,,7.0,,,7.0,,,,,,,7.0,,7.0,22,2024.0
74930,285 EAST 169 ST,9/4/2023,7/15/2024,1009956.0,285,EAST 169 STREET,Bronx,10456.0,2027850075.0,2000000.0,BX-04,16.0,17702.0,BX0403,40.835136,-73.912395,40.835257,-73.912062,2024-07-15,New Construction,No,Non Prevailing Wage,,,,,9.0,,8.0,1.0,,,,,,,9.0,,9.0,10,2024.0
74664,435 CENTRAL AVE,9/1/2023,6/16/2025,218689.0,431,CENTRAL AVENUE,Brooklyn,11221.0,3033690006.0,3425663.0,BK-04,37.0,415.0,BK0402,40.69247,-73.915272,40.692601,-73.915052,2025-06-16,New Construction,No,Non Prevailing Wage,,,,,5.0,,,1.0,4.0,,,,,,5.0,,5.0,14,2025.0
74666,127-131 CONCORD STREET APARTMENTS,8/31/2023,6/12/2024,224371.0,127,CONCORD STREET,Brooklyn,11201.0,3001070048.0,3000000.0,BK-02,33.0,13.0,BK0202,40.697666,-73.986282,40.697929,-73.986231,2024-06-12,New Construction,No,Non Prevailing Wage,,,,,22.0,,4.0,7.0,11.0,,,,,,22.0,,22.0,73,2024.0
74667,630 GRAND STREET APARTMENTS,8/31/2023,7/24/2024,1009974.0,630,GRAND STREET,Brooklyn,11211.0,3027870010.0,3000000.0,BK-01,34.0,503.0,BK0104,40.711356,-73.946843,40.711117,-73.946886,2024-07-24,New Construction,No,Non Prevailing Wage,,,,,6.0,,,6.0,,,,,,,6.0,,6.0,20,2024.0
74668,179 MARTENSE STREET,8/31/2023,11/21/2023,333338.0,179,MARTENSE STREET,Brooklyn,11226.0,3050870063.0,3116774.0,BK-17,40.0,822.0,BK1701,40.651514,-73.953348,40.651786,-73.953121,2023-11-21,New Construction,No,Non Prevailing Wage,,,,,4.0,,4.0,,,,,,,,4.0,,4.0,12,2023.0
74669,731 LIBERTY AVENUE APARTMENTS,8/30/2023,8/30/2023,989464.0,735,LIBERTY AVENUE,Brooklyn,11208.0,3039710049.0,3328398.0,BK-05,37.0,1168.0,BK0501,40.676466,-73.882637,40.676669,-73.882701,2023-08-30,New Construction,No,Non Prevailing Wage,,,,,3.0,,3.0,,,,,,,,3.0,,3.0,10,2023.0
69911,HAMILTON HEIGHTS II LLC.PLP.FY24 (HAMILTON HEIGHTS CLUSTER),8/29/2023,,22510.0,110,HAMILTON PLACE,Manhattan,10031.0,1020740025.0,1061858.0,MN-09,7.0,229.0,MN0903,40.823738,-73.949499,40.823842,-73.949636,2025-06-01,Preservation,No,Non Prevailing Wage,11.0,4.0,3.0,,,,,,6.0,12.0,,,,,18.0,,18.0,18,2025.0
69911,HAMILTON HEIGHTS II LLC.PLP.FY24 (HAMILTON HEIGHTS CLUSTER),8/29/2023,,41476.0,542,WEST 140 STREET,Manhattan,10031.0,1020710056.0,1061748.0,MN-09,7.0,225.0,MN0903,40.822789,-73.951653,40.822718,-73.951931,2024-05-17,Preservation,No,Non Prevailing Wage,5.0,2.0,1.0,,,,8.0,,,,,,,,8.0,,8.0,8,2024.0
69911,HAMILTON HEIGHTS II LLC.PLP.FY24 (HAMILTON HEIGHTS CLUSTER),8/29/2023,,41632.0,504,WEST 142 STREET,Manhattan,10031.0,1020730043.0,1061807.0,MN-09,7.0,225.0,MN0903,40.823727,-73.950008,40.823576,-73.950186,2024-05-17,Preservation,No,Non Prevailing Wage,1.0,5.0,2.0,,,,8.0,,,,,,,,8.0,,8.0,8,2024.0
